{"retailerName":"Apotheke","retailerStoreList":[{"storeLogo":"Apotheke","storeName":"Marienapotheke","storeAddress":{"street":"Marienstraße","number":"43","zipCode":"76137","city":"Karlsruhe"},"storeCoordinates":{"longitude":"8.4082143","latitude":"49.0014294"}},{"storeLogo":"Apotheke","storeName":"Johannes-Apotheke","storeAddress":{"street":"Markgrafenstraße","number":"27a","zipCode":"76131","city":"Karlsruhe"},"storeCoordinates":{"longitude":"8.4104187","latitude":"49.0076203"}},{"storeLogo":"Apotheke","storeName":"Spitzwegapotheke","storeAddress":{"street":"Südendstraße","number":"29","zipCode":"76137","city":"Karlsruhe"},"storeCoordinates":{"longitude":"8.3904036","latitude":"48.9983723"}},{"storeLogo":"Apotheke","storeName":"OK Apotheke am ZKM","storeAddress":{"street":"","number":"","zipCode":"","city":""},"storeCoordinates":{"longitude":"8.3863377","latitude":"48.998409"}},{"storeLogo":"Apotheke","storeName":"Helena-Apotheke","storeAddress":{"street":"Elbinger Straße","number":"16b","zipCode":"76139","city":"Karlsruhe"},"storeCoordinates":{"longitude":"8.4432292","latitude":"49.0419057"}},{"storeLogo":"Apotheke","storeName":"Kirchfeld-Apotheke","storeAddress":{"street":"Donauschwabenstraße","number":"20","zipCode":"76149","city":"Karlsruhe"},"storeCoordinates":{"longitude":"8.3955757","latitude":"49.0519802"}},{"storeLogo":"Apotheke","storeName":"Park-Apotheke","storeAddress":{"street":"","number":"","zipCode":"","city":""},"storeCoordinates":{"longitude":"8.3852837","latitude":"49.014966"}},{"storeLogo":"Apotheke","storeName":"Stern-Apotheke","storeAddress":{"street":"","number":"","zipCode":"","city":""},"storeCoordinates":{"longitude":"8.6573411","latitude":"49.5147243"}},{"storeLogo":"Apotheke","storeName":"Bergles-Apotheke","storeAddress":{"street":"","number":"","zipCode":"","city":""},"storeCoordinates":{"longitude":"8.5104784","latitude":"48.9543027"}},{"storeLogo":"Apotheke","storeName":"Apotheke am Kirchplatz","storeAddress":{"street":"Holländerstraße","number":"1","zipCode":"76189","city":"Karlsruhe"},"storeCoordinates":{"longitude":"8.3324632","latitude":"49.0045068"}},{"storeLogo":"Apotheke","storeName":"Paracelsus-Apotheke","storeAddress":{"street":"Pappelallee","number":"30","zipCode":"76189","city":"Karlsruhe"},"storeCoordinates":{"longitude":"8.3355173","latitude":"48.9961036"}},{"storeLogo":"Apotheke","storeName":"Markt Apotheke Neugraben","storeAddress":{"street":"Marktpassage","number":"7","zipCode":"21149","city":"Hamburg"},"storeCoordinates":{"longitude":"9.8528729","latitude":"53.4709509"}},{"storeLogo":"Apotheke","storeName":"Schaefer Apotheke","storeAddress":{"street":"Harburger Rathausstraße","number":"37","zipCode":"21073","city":"Hamburg"},"storeCoordinates":{"longitude":"9.9814229","latitude":"53.4590961"}},{"storeLogo":"Apotheke","storeName":"Striepenapotheke","storeAddress":{"street":"","number":"","zipCode":"","city":""},"storeCoordinates":{"longitude":"9.8757564","latitude":"53.4736161"}},{"storeLogo":"Apotheke","storeName":"Apotheke am Durlacher Tor","storeAddress":{"street":"Durlacher Allee","number":"10","zipCode":"76131","city":"Karlsruhe"},"storeCoordinates":{"longitude":"8.4181703","latitude":"49.0085267"}},{"storeLogo":"Apotheke","storeName":"Vogelsberg-Apotheke","storeAddress":{"street":"Wächtersbacher Straße","number":"33","zipCode":"63636","city":"Brachttal"},"storeCoordinates":{"longitude":"9.2984376","latitude":"50.3035343"}},{"storeLogo":"Apotheke","storeName":"Ost-Apotheke","storeAddress":{"street":"Essenweinstraße","number":"7","zipCode":"76131","city":"Karlsruhe"},"storeCoordinates":{"longitude":"8.4245703","latitude":"49.0102302"}},{"storeLogo":"Apotheke","storeName":"Hardt-Apotheke","storeAddress":{"street":"","number":"","zipCode":"76149","city":"Karlsruhe"},"storeCoordinates":{"longitude":"8.3799632","latitude":"49.0493448"}},{"storeLogo":"Apotheke","storeName":"Stefanie Apotheke","storeAddress":{"street":"","number":"","zipCode":"","city":""},"storeCoordinates":{"longitude":"8.3682182","latitude":"49.0309974"}},{"storeLogo":"Apotheke","storeName":"Oberreut-Apotheke","storeAddress":{"street":"","number":"","zipCode":"","city":""},"storeCoordinates":{"longitude":"8.3586607","latitude":"48.9859719"}},{"storeLogo":"Apotheke","storeName":"Löwen-Apotheke","storeAddress":{"street":"Holztorstraße","number":"19","zipCode":"31157","city":"Sarstedt"},"storeCoordinates":{"longitude":"9.8471183","latitude":"52.2327516"}},{"storeLogo":"Apotheke","storeName":"Wildpark-Apotheke","storeAddress":{"street":"Lötzener Straße","number":"8","zipCode":"76139","city":"Karlsruhe"},"storeCoordinates":{"longitude":"8.4455428","latitude":"49.0363453"}},{"storeLogo":"Apotheke","storeName":"Malven Apotheke - Langenbach","storeAddress":{"street":"Freisinger Straße","number":"19B","zipCode":"85416","city":"Langenbach"},"storeCoordinates":{"longitude":"11.8465169","latitude":"48.4356187"}},{"storeLogo":"Apotheke","storeName":"St. Georg Apotheke","storeAddress":{"street":"","number":"","zipCode":"","city":""},"storeCoordinates":{"longitude":"11.8325413","latitude":"48.4590994"}},{"storeLogo":"Apotheke","storeName":"Sonnenapotheke","storeAddress":{"street":"","number":"","zipCode":"","city":""},"storeCoordinates":{"longitude":"8.390156","latitude":"48.9936653"}},{"storeLogo":"Apotheke","storeName":"Engel-Apotheke","storeAddress":{"street":"","number":"","zipCode":"","city":""},"storeCoordinates":{"longitude":"8.4573469","latitude":"49.6414616"}},{"storeLogo":"Apotheke","storeName":"Residenz-Apotheke","storeAddress":{"street":"Homberger Straße","number":"69","zipCode":"47441","city":"Moers"},"storeCoordinates":{"longitude":"6.6368482","latitude":"51.4501521"}},{"storeLogo":"Apotheke","storeName":"Martin-Apotheke","storeAddress":{"street":"Hartmannstraße","number":"40","zipCode":"91330","city":"Eggolsheim"},"storeCoordinates":{"longitude":"11.0550576","latitude":"49.770064"}},{"storeLogo":"Apotheke","storeName":"Hirsch-Apotheke","storeAddress":{"street":"","number":"","zipCode":"","city":""},"storeCoordinates":{"longitude":"10.7796106","latitude":"49.7552012"}},{"storeLogo":"Apotheke","storeName":"Apotheke 55","storeAddress":{"street":"Hauptstraße","number":"55","zipCode":"28844","city":"Weyhe"},"storeCoordinates":{"longitude":"8.8334328","latitude":"52.9837501"}},{"storeLogo":"Apotheke","storeName":"Stern Apotheke","storeAddress":{"street":"Frankfurter Straße","number":"24","zipCode":"35392","city":"Gießen"},"storeCoordinates":{"longitude":"8.6665989","latitude":"50.5793332"}},{"storeLogo":"Apotheke","storeName":"Apotheke am Frankfurter Berg","storeAddress":{"street":"","number":"","zipCode":"","city":""},"storeCoordinates":{"longitude":"8.6805202","latitude":"50.1680695"}},{"storeLogo":"Apotheke","storeName":"Medici-Apotheke","storeAddress":{"street":"Lützner Straße","number":"164","zipCode":"04179","city":"Leipzig"},"storeCoordinates":{"longitude":"12.3189866","latitude":"51.3318236"}},{"storeLogo":"Apotheke","storeName":"Apotheke am Philosophenweg","storeAddress":{"street":"Friedrich-Ebert-Ring","number":"57","zipCode":"14712","city":"Rathenow"},"storeCoordinates":{"longitude":"12.3542351","latitude":"52.6047128"}},{"storeLogo":"Apotheke","storeName":"Dammapotheke","storeAddress":{"street":"","number":"","zipCode":"","city":""},"storeCoordinates":{"longitude":"8.2487135","latitude":"48.9842447"}},{"storeLogo":"Apotheke","storeName":"Marienapotheke","storeAddress":{"street":"Marienstraße","number":"2","zipCode":"76767","city":"Hagenbach"},"storeCoordinates":{"longitude":"8.2526851","latitude":"49.0166752"}},{"storeLogo":"Apotheke","storeName":"Tulla-Apotheke","storeAddress":{"street":"Tullastraße","number":"3a","zipCode":"76744","city":"Wörth"},"storeCoordinates":{"longitude":"8.2849473","latitude":"49.0352472"}},{"storeLogo":"Apotheke","storeName":"Stadthaus-Apotheke","storeAddress":{"street":"Neckarstraße","number":"5","zipCode":"","city":"Lorsch"},"storeCoordinates":{"longitude":"8.5654746","latitude":"49.6515225"}},{"storeLogo":"Apotheke","storeName":"Albtalapotheke","storeAddress":{"street":"Schöllbronner Straße","number":"2","zipCode":"76275","city":"Ettlingen"},"storeCoordinates":{"longitude":"8.4106861","latitude":"48.9390408"}},{"storeLogo":"Apotheke","storeName":"Apotheke im Globus Einöd","storeAddress":{"street":"","number":"","zipCode":"","city":""},"storeCoordinates":{"longitude":"7.3352325","latitude":"49.2637509"}},{"storeLogo":"Apotheke","storeName":"Heide-Apotheke","storeAddress":{"street":"Moorstraße","number":"5","zipCode":"","city":""},"storeCoordinates":{"longitude":"9.6204927","latitude":"52.6781135"}},{"storeLogo":"Apotheke","storeName":"Germania-Apotheke","storeAddress":{"street":"Neustädter Straße","number":"3","zipCode":"","city":""},"storeCoordinates":{"longitude":"9.6186171","latitude":"52.6748362"}},{"storeLogo":"Apotheke","storeName":"Kloster-Apotheke","storeAddress":{"street":"","number":"","zipCode":"","city":""},"storeCoordinates":{"longitude":"8.5675517","latitude":"49.6540451"}},{"storeLogo":"Apotheke","storeName":"Apotheke am Berliner Platz","storeAddress":{"street":"Berliner Platz","number":"2","zipCode":"76275","city":"Ettlingen"},"storeCoordinates":{"longitude":"8.4030834","latitude":"48.9492867"}},{"storeLogo":"Apotheke","storeName":"Wandels Apotheke St. Hubertus","storeAddress":{"street":"Sankt Hubertus","number":"28","zipCode":"23627","city":"Groß Grönau"},"storeCoordinates":{"longitude":"10.7251611","latitude":"53.8212394"}},{"storeLogo":"Apotheke","storeName":"Wandels Apotheke EKZ Grönauer Heide","storeAddress":{"street":"","number":"","zipCode":"","city":""},"storeCoordinates":{"longitude":"10.7393578","latitude":"53.8127872"}},{"storeLogo":"Apotheke","storeName":"Charlottenapotheke","storeAddress":{"street":"","number":"","zipCode":"","city":""},"storeCoordinates":{"longitude":"8.4074039","latitude":"48.9763403"}},{"storeLogo":"Apotheke","storeName":"Ahorn Apotheke","storeAddress":{"street":"Zossener Allee","number":"11","zipCode":"15838","city":"Am Mellensee"},"storeCoordinates":{"longitude":"13.3646559","latitude":"52.1446797"}},{"storeLogo":"Apotheke","storeName":"Leopold-Apotheke","storeAddress":{"street":"Sophienstraße","number":"53","zipCode":"76133","city":"Karlsruhe"},"storeCoordinates":{"longitude":"8.38965","latitude":"49.0074097"}},{"storeLogo":"Apotheke","storeName":"Sofienapotheke","storeAddress":{"street":"Yorckstraße","number":"29","zipCode":"76185","city":"Karlsruhe"},"storeCoordinates":{"longitude":"8.3737284","latitude":"49.0086987"}},{"storeLogo":"Apotheke","storeName":"Rosenapotheke","storeAddress":{"street":"Breisgaustraße","number":"9","zipCode":"76199","city":"Karlsruhe"},"storeCoordinates":{"longitude":"8.4062162","latitude":"48.9710138"}},{"storeLogo":"Apotheke","storeName":"Stadtapotheke","storeAddress":{"street":"Albstraße","number":"25","zipCode":"76275","city":"Ettlingen"},"storeCoordinates":{"longitude":"8.408629","latitude":"48.9416092"}},{"storeLogo":"Apotheke","storeName":"Schloßapotheke","storeAddress":{"street":"Marktstraße","number":"8","zipCode":"76275","city":"Ettlingen"},"storeCoordinates":{"longitude":"8.4071888","latitude":"48.9409677"}},{"storeLogo":"Apotheke","storeName":"Sibylla-Apotheke","storeAddress":{"street":"Badener-Tor-Straße","number":"16","zipCode":"76275","city":"Ettlingen"},"storeCoordinates":{"longitude":"8.4055696","latitude":"48.9412926"}},{"storeLogo":"Apotheke","storeName":"Erbprinz-Apotheke","storeAddress":{"street":"Mühlenstraße","number":"27","zipCode":"76275","city":"Ettlingen"},"storeCoordinates":{"longitude":"8.4055714","latitude":"48.9420453"}},{"storeLogo":"Apotheke","storeName":"Goethe-Apotheke","storeAddress":{"street":"Schleinkoferstraße","number":"2","zipCode":"76275","city":"Ettlingen"},"storeCoordinates":{"longitude":"8.4003047","latitude":"48.9416408"}},{"storeLogo":"Apotheke","storeName":"Apotheke am Stadtgarten","storeAddress":{"street":"Thiebauthstraße","number":"6-8","zipCode":"76275","city":"Ettlingen"},"storeCoordinates":{"longitude":"8.4086362","latitude":"48.939045"}},{"storeLogo":"Apotheke","storeName":"Forst-Apotheke","storeAddress":{"street":"Cranger Straße","number":"334","zipCode":"45891","city":"Gelsenkirchen"},"storeCoordinates":{"longitude":"7.0960452","latitude":"51.5560701"}},{"storeLogo":"Apotheke","storeName":"Panda-Apotheke","storeAddress":{"street":"Bismarckstraße","number":"150","zipCode":"45888","city":""},"storeCoordinates":{"longitude":"7.1030089","latitude":"51.5221905"}},{"storeLogo":"Apotheke","storeName":"Carmeliter-Apotheke","storeAddress":{"street":"Wilhelm-Leuschner-Straße","number":"10","zipCode":"67547","city":"Worms"},"storeCoordinates":{"longitude":"8.3597026","latitude":"49.633314"}},{"storeLogo":"Apotheke","storeName":"Schwanen-Apotheke","storeAddress":{"street":"Wilhelm-Leuschner-Straße","number":"22","zipCode":"67547","city":"Worms"},"storeCoordinates":{"longitude":"8.358509","latitude":"49.6338092"}},{"storeLogo":"Apotheke","storeName":"Rheingold-Apotheke","storeAddress":{"street":"Bahnhofstraße","number":"28","zipCode":"67547","city":"Worms"},"storeCoordinates":{"longitude":"8.3571386","latitude":"49.634178"}},{"storeLogo":"Apotheke","storeName":"Engel-Apotheke","storeAddress":{"street":"Kämmererstraße","number":"7","zipCode":"67547","city":"Worms"},"storeCoordinates":{"longitude":"8.3617578","latitude":"49.6308318"}},{"storeLogo":"Apotheke","storeName":"Paulus Apotheke","storeAddress":{"street":"","number":"","zipCode":"","city":""},"storeCoordinates":{"longitude":"8.3655739","latitude":"49.6300324"}},{"storeLogo":"Apotheke","storeName":"","storeAddress":{"street":"Jahnstraße","number":"7","zipCode":"35452","city":"Heuchelheim"},"storeCoordinates":{"longitude":"8.6331227","latitude":"50.5833965"}},{"storeLogo":"Apotheke","storeName":"Apotheke St. Ulrich","storeAddress":{"street":"","number":"","zipCode":"","city":""},"storeCoordinates":{"longitude":"9.5006759","latitude":"49.0025867"}},{"storeLogo":"Apotheke","storeName":"Löwen Apotheke","storeAddress":{"street":"","number":"","zipCode":"","city":""},"storeCoordinates":{"longitude":"9.5024465","latitude":"49.0027981"}},{"storeLogo":"Apotheke","storeName":"Apotheke am Hohenzollernpark","storeAddress":{"street":"","number":"","zipCode":"","city":""},"storeCoordinates":{"longitude":"7.193982","latitude":"51.608779"}},{"storeLogo":"Apotheke","storeName":"Hagen-Apotheke","storeAddress":{"street":"","number":"","zipCode":"","city":""},"storeCoordinates":{"longitude":"8.463263","latitude":"49.6015537"}},{"storeLogo":"Apotheke","storeName":"","storeAddress":{"street":"","number":"","zipCode":"","city":""},"storeCoordinates":{"longitude":"7.8607907","latitude":"49.9547683"}},{"storeLogo":"Apotheke","storeName":"Entensee-Apotheke","storeAddress":{"street":"Lindenweg","number":"13","zipCode":"76275","city":"Ettlingen"},"storeCoordinates":{"longitude":"8.3838722","latitude":"48.9486532"}},{"storeLogo":"Apotheke","storeName":"Dorschbergapotheke","storeAddress":{"street":"Am Bienwald","number":"5","zipCode":"76744","city":"Wörth"},"storeCoordinates":{"longitude":"8.2612277","latitude":"49.0500702"}},{"storeLogo":"Apotheke","storeName":"Sonnenapotheke","storeAddress":{"street":"Am Lindscharren","number":"4-6","zipCode":"76275","city":"Ettlingen"},"storeCoordinates":{"longitude":"8.4078927","latitude":"48.9472597"}},{"storeLogo":"Apotheke","storeName":"St. Hildegardis Apotheke","storeAddress":{"street":"Magdalenenstraße","number":"65","zipCode":"64579","city":"Gernsheim"},"storeCoordinates":{"longitude":"8.4823661","latitude":"49.752272"}},{"storeLogo":"Apotheke","storeName":"Markt-Apotheke","storeAddress":{"street":"Kirchenstraße","number":"6","zipCode":"22946","city":"Trittau"},"storeCoordinates":{"longitude":"10.4035279","latitude":"53.6123674"}},{"storeLogo":"Apotheke","storeName":"Alte Apotheke von 1828","storeAddress":{"street":"","number":"","zipCode":"","city":""},"storeCoordinates":{"longitude":"10.4068885","latitude":"53.6096162"}},{"storeLogo":"Apotheke","storeName":"Post-Apotheke","storeAddress":{"street":"","number":"","zipCode":"","city":""},"storeCoordinates":{"longitude":"10.4094979","latitude":"53.6084902"}},{"storeLogo":"Apotheke","storeName":"Apotheke am Rathausplatz","storeAddress":{"street":"Kaiserwall","number":"12","zipCode":"45657","city":"Recklinghausen"},"storeCoordinates":{"longitude":"7.2008311","latitude":"51.6123619"}},{"storeLogo":"Apotheke","storeName":"Kreuzapotheke","storeAddress":{"street":"Dortmunder Straße","number":"120c","zipCode":"45665","city":"Recklinghausen"},"storeCoordinates":{"longitude":"7.2151348","latitude":"51.6177634"}},{"storeLogo":"Apotheke","storeName":"Glückauf-Apotheke","storeAddress":{"street":"","number":"","zipCode":"","city":""},"storeCoordinates":{"longitude":"7.319303","latitude":"51.6195623"}},{"storeLogo":"Apotheke","storeName":"Sankt Paulus Apotheke","storeAddress":{"street":"Hohenzollernstraße","number":"40","zipCode":"45659","city":"Recklinghausen"},"storeCoordinates":{"longitude":"7.1922091","latitude":"51.6090832"}},{"storeLogo":"Apotheke","storeName":"Hammer Apotheke","storeAddress":{"street":"Alsterdorfer Straße","number":"299","zipCode":"22297","city":"Hamburg"},"storeCoordinates":{"longitude":"10.0104013","latitude":"53.6088767"}},{"storeLogo":"Apotheke","storeName":"Heubergredder Apotheke","storeAddress":{"street":"Alsterdorfer Straße","number":"284","zipCode":"22297","city":"Hamburg"},"storeCoordinates":{"longitude":"10.0086537","latitude":"53.6080269"}},{"storeLogo":"Apotheke","storeName":"Hustadt-Apotheke","storeAddress":{"street":"Buscheyplatz","number":"15","zipCode":"44801","city":"Bochum"},"storeCoordinates":{"longitude":"7.2618878","latitude":"51.4500647"}},{"storeLogo":"Apotheke","storeName":"Ulen-Apotheke","storeAddress":{"street":"Groot Enn","number":"3","zipCode":"21149","city":"Hamburg"},"storeCoordinates":{"longitude":"9.8534936","latitude":"53.4718017"}},{"storeLogo":"Apotheke","storeName":"ina Apotheke","storeAddress":{"street":"Dorfackerstraße","number":"17","zipCode":"72074","city":"Tübingen"},"storeCoordinates":{"longitude":"9.080162","latitude":"48.5308012"}},{"storeLogo":"Apotheke","storeName":"Bärenapotheke","storeAddress":{"street":"","number":"","zipCode":"","city":""},"storeCoordinates":{"longitude":"7.8400153","latitude":"48.0002952"}},{"storeLogo":"Apotheke","storeName":"Apotheke an der Kronenbrücke","storeAddress":{"street":"Schreiberstraße","number":"20","zipCode":"79098","city":"Freiburg im Breisgau"},"storeCoordinates":{"longitude":"7.8461997","latitude":"47.9909111"}},{"storeLogo":"Apotheke","storeName":"k&k-Apotheke","storeAddress":{"street":"","number":"","zipCode":"","city":""},"storeCoordinates":{"longitude":"7.8284106","latitude":"47.9709529"}},{"storeLogo":"Apotheke","storeName":"Schloß-Apotheke","storeAddress":{"street":"","number":"","zipCode":"","city":""},"storeCoordinates":{"longitude":"8.7872639","latitude":"50.6088794"}},{"storeLogo":"Apotheke","storeName":"Brunnen-Apotheke","storeAddress":{"street":"","number":"","zipCode":"79098","city":""},"storeCoordinates":{"longitude":"7.8489709","latitude":"47.9950489"}},{"storeLogo":"Apotheke","storeName":"Hubertus-Apotheke","storeAddress":{"street":"","number":"","zipCode":"79098","city":""},"storeCoordinates":{"longitude":"7.8464712","latitude":"47.9957064"}},{"storeLogo":"Apotheke","storeName":"Apotheke am Theater","storeAddress":{"street":"Bertoldstraße","number":"","zipCode":"79098","city":""},"storeCoordinates":{"longitude":"7.8466311","latitude":"47.9953913"}},{"storeLogo":"Apotheke","storeName":"Breisgau Apotheke","storeAddress":{"street":"","number":"","zipCode":"79098","city":""},"storeCoordinates":{"longitude":"7.84371","latitude":"47.9971892"}},{"storeLogo":"Apotheke","storeName":"Hofapotheke","storeAddress":{"street":"Kaiser-Joseph-Straße","number":"179","zipCode":"79098","city":"Freiburg im Breisgau"},"storeCoordinates":{"longitude":"7.8510485","latitude":"47.9958264"}},{"storeLogo":"Apotheke","storeName":"Glocken-Apotheke","storeAddress":{"street":"Schusterstraße","number":"5","zipCode":"79098","city":"Freiburg im Breisgau"},"storeCoordinates":{"longitude":"7.8512626","latitude":"47.9951095"}},{"storeLogo":"Apotheke","storeName":"Löwenapotheke","storeAddress":{"street":"","number":"","zipCode":"79098","city":""},"storeCoordinates":{"longitude":"7.8499013","latitude":"47.9946747"}},{"storeLogo":"Apotheke","storeName":"Insel-Apotheke","storeAddress":{"street":"Georg-Schütte-Platz","number":"4","zipCode":"26757","city":"Borkum"},"storeCoordinates":{"longitude":"6.6629866","latitude":"53.5878402"}},{"storeLogo":"Apotheke","storeName":"Brunnen-Apotheke","storeAddress":{"street":"Lange Straße","number":"1","zipCode":"75236","city":"Kämpfelbach"},"storeCoordinates":{"longitude":"8.6348724","latitude":"48.9333329"}},{"storeLogo":"Apotheke","storeName":"Laurentiusapotheke","storeAddress":{"street":"Goethestraße","number":"60","zipCode":"63801","city":"Kleinostheim"},"storeCoordinates":{"longitude":"9.0676958","latitude":"50.0012021"}},{"storeLogo":"Apotheke","storeName":"Mühlen-Apotheke","storeAddress":{"street":"Neugrabener Bahnhofstraße","number":"33","zipCode":"21149","city":"Hamburg"},"storeCoordinates":{"longitude":"9.8546768","latitude":"53.4691138"}},{"storeLogo":"Apotheke","storeName":"Kranichapotheke","storeAddress":{"street":"","number":"","zipCode":"","city":""},"storeCoordinates":{"longitude":"8.3632267","latitude":"48.9855661"}},{"storeLogo":"Apotheke","storeName":"Cäcilien-Apotheke","storeAddress":{"street":"Hauptstraße","number":"64","zipCode":"76534","city":"Baden-Baden"},"storeCoordinates":{"longitude":"8.2594336","latitude":"48.7442917"}},{"storeLogo":"Apotheke","storeName":"Primus Apotheke","storeAddress":{"street":"","number":"","zipCode":"","city":""},"storeCoordinates":{"longitude":"9.4715883","latitude":"51.3120395"}},{"storeLogo":"Apotheke","storeName":"Westend-Apotheke","storeAddress":{"street":"","number":"","zipCode":"","city":""},"storeCoordinates":{"longitude":"6.9737052","latitude":"51.4479942"}},{"storeLogo":"Apotheke","storeName":"Roland Apotheke","storeAddress":{"street":"","number":"","zipCode":"","city":""},"storeCoordinates":{"longitude":"10.5411255","latitude":"52.2959936"}},{"storeLogo":"Apotheke","storeName":"Heinrich-Heine-Apotheke","storeAddress":{"street":"","number":"","zipCode":"","city":""},"storeCoordinates":{"longitude":"8.4085954","latitude":"48.9648103"}},{"storeLogo":"Apotheke","storeName":"Michel-Apotheke","storeAddress":{"street":"Alsterdorfer Straße","number":"6","zipCode":"22299","city":"Hamburg"},"storeCoordinates":{"longitude":"9.9984189","latitude":"53.5953349"}},{"storeLogo":"Apotheke","storeName":"Apotheke Godshorn","storeAddress":{"street":"Hauptstraße","number":"10a","zipCode":"30855","city":"Langenhagen"},"storeCoordinates":{"longitude":"9.7059573","latitude":"52.4376857"}},{"storeLogo":"Apotheke","storeName":"Uhlen Apotheke","storeAddress":{"street":"Rathausstraße","number":"2","zipCode":"31608","city":"Marklohe"},"storeCoordinates":{"longitude":"9.158873","latitude":"52.6602018"}},{"storeLogo":"Apotheke","storeName":"Apotheke im Marktkauf-Center","storeAddress":{"street":"Seeveplatz","number":"1","zipCode":"21073","city":"Hamburg"},"storeCoordinates":{"longitude":"9.986952","latitude":"53.4574023"}},{"storeLogo":"Apotheke","storeName":"Engel-Apotheke","storeAddress":{"street":"","number":"","zipCode":"","city":""},"storeCoordinates":{"longitude":"7.8542793","latitude":"47.9963991"}},{"storeLogo":"Apotheke","storeName":"Wickenburgapotheke","storeAddress":{"street":"Mülheimer Straße","number":"120","zipCode":"45145","city":"Essen"},"storeCoordinates":{"longitude":"6.9701986","latitude":"51.4439537"}},{"storeLogo":"Apotheke","storeName":"Holzmarkt Apotheke","storeAddress":{"street":"","number":"","zipCode":"79098","city":""},"storeCoordinates":{"longitude":"7.8488475","latitude":"47.9925752"}},{"storeLogo":"Apotheke","storeName":"Schlossbergapotheke","storeAddress":{"street":"","number":"","zipCode":"","city":""},"storeCoordinates":{"longitude":"8.4573636","latitude":"48.9777296"}},{"storeLogo":"Apotheke","storeName":"Remsapotheke","storeAddress":{"street":"Rathausstraße","number":"30","zipCode":"73630","city":"Remshalden"},"storeCoordinates":{"longitude":"9.441815","latitude":"48.8085182"}},{"storeLogo":"Apotheke","storeName":"Weier Apotheke","storeAddress":{"street":"Ettlinger Straße","number":"31","zipCode":"76275","city":"Ettlingen"},"storeCoordinates":{"longitude":"8.3887191","latitude":"48.926429"}},{"storeLogo":"Apotheke","storeName":"St. Michael","storeAddress":{"street":"","number":"","zipCode":"","city":""},"storeCoordinates":{"longitude":"8.2487138","latitude":"49.0185133"}},{"storeLogo":"Apotheke","storeName":"Alte Apotheke","storeAddress":{"street":"Markt","number":"19","zipCode":"07426","city":"Königsee-Rottenbach"},"storeCoordinates":{"longitude":"11.0966236","latitude":"50.6612376"}},{"storeLogo":"Apotheke","storeName":"Neue Apotheke","storeAddress":{"street":"Hügelsheimer Straße","number":"2","zipCode":"76473","city":"Iffezheim"},"storeCoordinates":{"longitude":"8.1404071","latitude":"48.8226141"}},{"storeLogo":"Apotheke","storeName":"Löwen-Apotheke","storeAddress":{"street":"Kurt-Schumacher-Straße","number":"25","zipCode":"38102","city":"Braunschweig"},"storeCoordinates":{"longitude":"10.5313306","latitude":"52.2577087"}},{"storeLogo":"Apotheke","storeName":"Florian Apotheke - Unger®","storeAddress":{"street":"Nibelungenstraße","number":"707","zipCode":"64686","city":"Lautertal"},"storeCoordinates":{"longitude":"8.7397922","latitude":"49.7163299"}},{"storeLogo":"Apotheke","storeName":"Marien-Apotheke","storeAddress":{"street":"Ooser Bahnhofstraße","number":"19","zipCode":"76532","city":"Baden-Baden"},"storeCoordinates":{"longitude":"8.1922734","latitude":"48.7881784"}},{"storeLogo":"Apotheke","storeName":"Berthold-Apotheke","storeAddress":{"street":"Lichtentaler Straße","number":"72","zipCode":"76530","city":"Baden-Baden"},"storeCoordinates":{"longitude":"8.2438939","latitude":"48.7546708"}},{"storeLogo":"Apotheke","storeName":"Deich-Apotheke","storeAddress":{"street":"Neuenfelder Straße","number":"116","zipCode":"21109","city":"Hamburg"},"storeCoordinates":{"longitude":"10.0169965","latitude":"53.4917147"}},{"storeLogo":"Apotheke","storeName":"Dünsberg-Apotheke","storeAddress":{"street":"","number":"","zipCode":"","city":""},"storeCoordinates":{"longitude":"8.6022734","latitude":"50.6168243"}},{"storeLogo":"Apotheke","storeName":"Schwanen-Apotheke","storeAddress":{"street":"","number":"","zipCode":"","city":""},"storeCoordinates":{"longitude":"8.644025","latitude":"49.8188944"}},{"storeLogo":"Apotheke","storeName":"Georgen Apotheke Schmid und Leining","storeAddress":{"street":"","number":"","zipCode":"","city":""},"storeCoordinates":{"longitude":"8.6440304","latitude":"49.8207559"}},{"storeLogo":"Apotheke","storeName":"Rathaus-Apotheke","storeAddress":{"street":"Würzburger Straße","number":"6","zipCode":"97292","city":"Uettingen"},"storeCoordinates":{"longitude":"9.7305406","latitude":"49.7952763"}},{"storeLogo":"Apotheke","storeName":"Engel Apotheke","storeAddress":{"street":"","number":"","zipCode":"","city":""},"storeCoordinates":{"longitude":"8.6127067","latitude":"49.7540744"}},{"storeLogo":"Apotheke","storeName":"Engel-Apotheke","storeAddress":{"street":"Orber Straße","number":"24","zipCode":"97833","city":"Frammersbach"},"storeCoordinates":{"longitude":"9.4685772","latitude":"50.0648189"}},{"storeLogo":"Apotheke","storeName":"Mohren-Apotheke","storeAddress":{"street":"Mainzer Straße","number":"56","zipCode":"67547","city":"Worms"},"storeCoordinates":{"longitude":"8.3638463","latitude":"49.6405683"}},{"storeLogo":"Apotheke","storeName":"neue Apotheke Oos","storeAddress":{"street":"Wilhelm-Drapp-Straße","number":"23","zipCode":"76532","city":"Baden-Baden"},"storeCoordinates":{"longitude":"8.1991681","latitude":"48.7980055"}},{"storeLogo":"Apotheke","storeName":"Filderapotheke","storeAddress":{"street":"Nürtinger Straße","number":"6","zipCode":"70794","city":"Filderstadt"},"storeCoordinates":{"longitude":"9.2185258","latitude":"48.6784098"}},{"storeLogo":"Apotheke","storeName":"Wieslauter Apotheke","storeAddress":{"street":"Lukasstraße","number":"11","zipCode":"76768","city":"Berg (Pfalz)"},"storeCoordinates":{"longitude":"8.1991047","latitude":"48.981287"}},{"storeLogo":"Apotheke","storeName":"Stadt-Apotheke","storeAddress":{"street":"Unterländer Straße","number":"55","zipCode":"70435","city":"Stuttgart"},"storeCoordinates":{"longitude":"9.1699681","latitude":"48.8321964"}},{"storeLogo":"Apotheke","storeName":"Neue Apotheke","storeAddress":{"street":"Begastraße","number":"12","zipCode":"32108","city":"Bad Salzuflen"},"storeCoordinates":{"longitude":"8.7566605","latitude":"52.0710759"}},{"storeLogo":"Apotheke","storeName":"Apotheke im Dorf","storeAddress":{"street":"","number":"","zipCode":"","city":""},"storeCoordinates":{"longitude":"8.9938327","latitude":"48.629782"}},{"storeLogo":"Apotheke","storeName":"Marienapotheke","storeAddress":{"street":"Rurdorfer Straße","number":"56","zipCode":"52441","city":"Linnich"},"storeCoordinates":{"longitude":"6.2682136","latitude":"50.9767335"}},{"storeLogo":"Apotheke","storeName":"Löwen Apotheke","storeAddress":{"street":"Mahrstraße","number":"23","zipCode":"52441","city":"Linnich"},"storeCoordinates":{"longitude":"6.2666606","latitude":"50.9783827"}},{"storeLogo":"Apotheke","storeName":"Fortuna-Apotheke","storeAddress":{"street":"","number":"","zipCode":"","city":""},"storeCoordinates":{"longitude":"7.6472577","latitude":"51.9641452"}},{"storeLogo":"Apotheke","storeName":"Marien-Apotheke","storeAddress":{"street":"","number":"","zipCode":"","city":""},"storeCoordinates":{"longitude":"7.6412009","latitude":"51.9707412"}},{"storeLogo":"Apotheke","storeName":"Apotheke am Kelterplatz","storeAddress":{"street":"","number":"","zipCode":"","city":""},"storeCoordinates":{"longitude":"9.1749294","latitude":"48.8302579"}},{"storeLogo":"Apotheke","storeName":"Brunnenapotheke","storeAddress":{"street":"Hauptstraße","number":"63","zipCode":"76327","city":"Pfinztal"},"storeCoordinates":{"longitude":"8.542197","latitude":"48.9864787"}},{"storeLogo":"Apotheke","storeName":"Grafen-Apotheke","storeAddress":{"street":"","number":"","zipCode":"","city":""},"storeCoordinates":{"longitude":"8.6013865","latitude":"49.926971"}},{"storeLogo":"Apotheke","storeName":"Trauben-Apotheke","storeAddress":{"street":"Unterländer Straße","number":"37","zipCode":"70435","city":"Stuttgart"},"storeCoordinates":{"longitude":"9.1716511","latitude":"48.8319305"}},{"storeLogo":"Apotheke","storeName":"Apotheke im Romeo","storeAddress":{"street":"","number":"","zipCode":"","city":""},"storeCoordinates":{"longitude":"9.1853834","latitude":"48.8307338"}},{"storeLogo":"Apotheke","storeName":"Apotheke am Rathaus","storeAddress":{"street":"Hauptstraße","number":"13","zipCode":"91325","city":"Adelsdorf"},"storeCoordinates":{"longitude":"10.895766","latitude":"49.714218"}},{"storeLogo":"Apotheke","storeName":"Rats-Apotheke","storeAddress":{"street":"Kirchenstraße","number":"8","zipCode":"27432","city":"Bremervörde"},"storeCoordinates":{"longitude":"9.1461161","latitude":"53.4860846"}},{"storeLogo":"Apotheke","storeName":"Oste-Apotheke","storeAddress":{"street":"Neue Straße","number":"32","zipCode":"27432","city":"Bremervörde"},"storeCoordinates":{"longitude":"9.1467292","latitude":"53.4870649"}},{"storeLogo":"Apotheke","storeName":"Alte Apotheke","storeAddress":{"street":"Neue Straße","number":"24","zipCode":"27432","city":"Bremervörde"},"storeCoordinates":{"longitude":"9.1481122","latitude":"53.4866287"}},{"storeLogo":"Apotheke","storeName":"Rosen-Apotheke","storeAddress":{"street":"Talstraße","number":"2","zipCode":"88250","city":"Weingarten"},"storeCoordinates":{"longitude":"9.6367802","latitude":"47.8068218"}},{"storeLogo":"Apotheke","storeName":"Kosmos","storeAddress":{"street":"","number":"","zipCode":"","city":""},"storeCoordinates":{"longitude":"11.9445298","latitude":"51.1985747"}},{"storeLogo":"Apotheke","storeName":"Antoniusapotheke","storeAddress":{"street":"Wehrstraße","number":"20","zipCode":"76474","city":"Au am Rhein"},"storeCoordinates":{"longitude":"8.2384596","latitude":"48.953572"}},{"storeLogo":"Apotheke","storeName":"Petri-Apotheke","storeAddress":{"street":"","number":"","zipCode":"","city":""},"storeCoordinates":{"longitude":"11.3296411","latitude":"48.2081561"}},{"storeLogo":"Apotheke","storeName":"Rosen-Apotheke","storeAddress":{"street":"","number":"","zipCode":"","city":""},"storeCoordinates":{"longitude":"6.894793","latitude":"51.1224456"}},{"storeLogo":"Apotheke","storeName":"Ratsapotheke","storeAddress":{"street":"Dr.-Max-Schwarz-Platz","number":"1","zipCode":"92526","city":"Oberviechtach"},"storeCoordinates":{"longitude":"12.418947","latitude":"49.4583217"}},{"storeLogo":"Apotheke","storeName":"Bahnhofs-Apotheke","storeAddress":{"street":"Ilzweg","number":"1","zipCode":"82140","city":"Olching"},"storeCoordinates":{"longitude":"11.3339193","latitude":"48.2110597"}},{"storeLogo":"Apotheke","storeName":"Osburg Apoheke","storeAddress":{"street":"Marktplatz","number":"3","zipCode":"","city":""},"storeCoordinates":{"longitude":"6.7910239","latitude":"49.7153788"}},{"storeLogo":"Apotheke","storeName":"Gauß Apotheke","storeAddress":{"street":"","number":"","zipCode":"","city":""},"storeCoordinates":{"longitude":"10.5211696","latitude":"52.2748499"}},{"storeLogo":"Apotheke","storeName":"Hagenmarkt Apotheke","storeAddress":{"street":"Hagenmarkt","number":"19-20","zipCode":"38100","city":"Braunschweig"},"storeCoordinates":{"longitude":"10.5243402","latitude":"52.2678332"}},{"storeLogo":"Apotheke","storeName":"Apotheke am Botanischen Garten","storeAddress":{"street":"Humboldtstraße","number":"4","zipCode":"38106","city":"Braunschweig"},"storeCoordinates":{"longitude":"10.5341509","latitude":"52.2705659"}},{"storeLogo":"Apotheke","storeName":"Sabelus XXL Apotheke","storeAddress":{"street":"Albert-Tanneur-Straße","number":"32","zipCode":"14974","city":"Ludwigsfelde"},"storeCoordinates":{"longitude":"13.2614616","latitude":"52.3016422"}},{"storeLogo":"Apotheke","storeName":"Markt Apotheke","storeAddress":{"street":"Albert-Tanneur-Straße","number":"27","zipCode":"14974","city":"Ludwigsfelde"},"storeCoordinates":{"longitude":"13.2611971","latitude":"52.3013798"}},{"storeLogo":"Apotheke","storeName":"Fontane-Apotheke","storeAddress":{"street":"Potsdamer Straße","number":"51","zipCode":"14974","city":"Ludwigsfelde"},"storeCoordinates":{"longitude":"13.2544098","latitude":"52.3038341"}},{"storeLogo":"Apotheke","storeName":"Brunnen-Apotheke","storeAddress":{"street":"Potsdamer Straße","number":"120a","zipCode":"14974","city":"Ludwigsfelde"},"storeCoordinates":{"longitude":"13.24623","latitude":"52.3091115"}},{"storeLogo":"Apotheke","storeName":"Einhorn-Apotheke","storeAddress":{"street":"","number":"","zipCode":"","city":""},"storeCoordinates":{"longitude":"10.5041213","latitude":"52.2676289"}},{"storeLogo":"Apotheke","storeName":"Apotheke am Bahnhof Volksdorf","storeAddress":{"street":"Farmsener Landstraße","number":"189","zipCode":"","city":""},"storeCoordinates":{"longitude":"10.1620006","latitude":"53.6505658"}},{"storeLogo":"Apotheke","storeName":"Marienapotheke","storeAddress":{"street":"Marienstraße","number":"","zipCode":"30982","city":"Pattensen"},"storeCoordinates":{"longitude":"9.7612239","latitude":"52.2649143"}},{"storeLogo":"Apotheke","storeName":"Hirschapotheke","storeAddress":{"street":"Göttinger Straße","number":"22","zipCode":"30982","city":"Pattensen"},"storeCoordinates":{"longitude":"9.7641593","latitude":"52.2618059"}},{"storeLogo":"Apotheke","storeName":"Strüb Apotheke","storeAddress":{"street":"Im Städtle","number":"122","zipCode":"72519","city":"Veringenstadt"},"storeCoordinates":{"longitude":"9.2130695","latitude":"48.1785014"}},{"storeLogo":"Apotheke","storeName":"Wallau-Apotheke","storeAddress":{"street":"Rathausstraße","number":"1","zipCode":"65719","city":""},"storeCoordinates":{"longitude":"8.3720684","latitude":"50.0624066"}},{"storeLogo":"Apotheke","storeName":"Falkenapotheke","storeAddress":{"street":"Ginnheimer Landstraße","number":"125","zipCode":"60431","city":"Frankfurt am Main"},"storeCoordinates":{"longitude":"8.6462059","latitude":"50.1384765"}},{"storeLogo":"Apotheke","storeName":"Stern Apotheke","storeAddress":{"street":"","number":"","zipCode":"","city":""},"storeCoordinates":{"longitude":"10.277663","latitude":"47.5119251"}},{"storeLogo":"Apotheke","storeName":"Dr. Rössler's Hofapotheke","storeAddress":{"street":"Sophienstraße","number":"7","zipCode":"76530","city":"Baden-Baden"},"storeCoordinates":{"longitude":"8.24115","latitude":"48.7616453"}},{"storeLogo":"Apotheke","storeName":"Bäder-Apotheke","storeAddress":{"street":"Gernsbacher Straße","number":"34","zipCode":"76530","city":"Baden-Baden"},"storeCoordinates":{"longitude":"8.2426551","latitude":"48.7624713"}},{"storeLogo":"Apotheke","storeName":"Alte Hofapotheke","storeAddress":{"street":"Lange Straße","number":"2","zipCode":"76530","city":"Baden-Baden"},"storeCoordinates":{"longitude":"8.2400207","latitude":"48.7617254"}},{"storeLogo":"Apotheke","storeName":"Stadtapotheke","storeAddress":{"street":"Gernsbacher Straße","number":"2","zipCode":"76530","city":"Baden-Baden"},"storeCoordinates":{"longitude":"8.2401714","latitude":"48.761594"}},{"storeLogo":"Apotheke","storeName":"Apotheke am Seepark","storeAddress":{"street":"Hofackerstraße","number":"92","zipCode":"79110","city":"Freiburg im Breisgau"},"storeCoordinates":{"longitude":"7.8104258","latitude":"48.0127989"}},{"storeLogo":"Apotheke","storeName":"Holbein-Apotheke","storeAddress":{"street":"","number":"","zipCode":"76149","city":"Karlsruhe"},"storeCoordinates":{"longitude":"8.3800542","latitude":"49.0474387"}},{"storeLogo":"Apotheke","storeName":"Apotheke am Wall","storeAddress":{"street":"Wallstraße","number":"16-20","zipCode":"48683","city":"Ahaus"},"storeCoordinates":{"longitude":"7.0053667","latitude":"52.0749744"}},{"storeLogo":"Apotheke","storeName":"Helle Apotheke","storeAddress":{"street":"","number":"","zipCode":"","city":""},"storeCoordinates":{"longitude":"6.6714606","latitude":"50.934724"}},{"storeLogo":"Apotheke","storeName":"Curie Apotheke","storeAddress":{"street":"Hardtstraße","number":"15","zipCode":"76344","city":"Eggenstein-Leopoldshafen"},"storeCoordinates":{"longitude":"8.3971222","latitude":"49.0973756"}},{"storeLogo":"Apotheke","storeName":"Reichenberger Apotheke","storeAddress":{"street":"Reichenberger Straße","number":"3","zipCode":"13055","city":"Berlin"},"storeCoordinates":{"longitude":"13.4866016","latitude":"52.5407412"}},{"storeLogo":"Apotheke","storeName":"Castello-Apotheke","storeAddress":{"street":"","number":"","zipCode":"","city":""},"storeCoordinates":{"longitude":"13.4696536","latitude":"52.5318353"}},{"storeLogo":"Apotheke","storeName":"Rosen Apotheke","storeAddress":{"street":"Rudolf-Seiffert-Straße","number":"11","zipCode":"10369","city":"Berlin"},"storeCoordinates":{"longitude":"13.4685134","latitude":"52.5275552"}},{"storeLogo":"Apotheke","storeName":"NeuKauf-Apotheke","storeAddress":{"street":"Hornstraße","number":"6","zipCode":"93053","city":"Regensburg"},"storeCoordinates":{"longitude":"12.1155162","latitude":"49.0053565"}},{"storeLogo":"Apotheke","storeName":"Einhorn-Apotheke","storeAddress":{"street":"Landshuter Straße","number":"64-66","zipCode":"93053","city":"Regensburg"},"storeCoordinates":{"longitude":"12.1154288","latitude":"49.0077668"}},{"storeLogo":"Apotheke","storeName":"Melanchthon Apotheke","storeAddress":{"street":"Melanchthonstraße","number":"46","zipCode":"30165","city":"Hannover"},"storeCoordinates":{"longitude":"9.7314772","latitude":"52.3983251"}},{"storeLogo":"Apotheke","storeName":"Kleeblatt-Apotheke","storeAddress":{"street":"Wattenscheider Hellweg","number":"149","zipCode":"44867","city":"Bochum"},"storeCoordinates":{"longitude":"7.1450301","latitude":"51.4607476"}},{"storeLogo":"Apotheke","storeName":"Adler Apotheke","storeAddress":{"street":"","number":"","zipCode":"","city":""},"storeCoordinates":{"longitude":"8.1269092","latitude":"50.4592564"}},{"storeLogo":"Apotheke","storeName":"Hofapotheke zum Löwen","storeAddress":{"street":"Zeller Straße","number":"18","zipCode":"97082","city":"Würzburg"},"storeCoordinates":{"longitude":"9.9233307","latitude":"49.7938295"}},{"storeLogo":"Apotheke","storeName":"Merkur Apotheke","storeAddress":{"street":"","number":"","zipCode":"","city":""},"storeCoordinates":{"longitude":"9.6784355","latitude":"52.4127745"}},{"storeLogo":"Apotheke","storeName":"Meldau Apotheke","storeAddress":{"street":"","number":"","zipCode":"","city":""},"storeCoordinates":{"longitude":"9.6851162","latitude":"52.3935303"}},{"storeLogo":"Apotheke","storeName":"Apotheke am Zollberg","storeAddress":{"street":"Zollernplatz","number":"7/1","zipCode":"73734","city":"Esslingen am Neckar"},"storeCoordinates":{"longitude":"9.3057004","latitude":"48.728273"}},{"storeLogo":"Apotheke","storeName":"Zur alten Schmiede","storeAddress":{"street":"Im Alten Dorfe","number":"23","zipCode":"22359","city":"Hamburg"},"storeCoordinates":{"longitude":"10.1645751","latitude":"53.6488109"}},{"storeLogo":"Apotheke","storeName":"Margareten-Apotheke","storeAddress":{"street":"Karl-Kunger-Straße","number":"46","zipCode":"12435","city":"Berlin"},"storeCoordinates":{"longitude":"13.4505704","latitude":"52.4893898"}},{"storeLogo":"Apotheke","storeName":"Ahorn-Apotheke","storeAddress":{"street":"","number":"","zipCode":"","city":""},"storeCoordinates":{"longitude":"13.957712","latitude":"51.3308098"}},{"storeLogo":"Apotheke","storeName":"Post-Apotheke","storeAddress":{"street":"Groten Hoff","number":"12","zipCode":"22359","city":"Hamburg"},"storeCoordinates":{"longitude":"10.1640859","latitude":"53.6479154"}},{"storeLogo":"Apotheke","storeName":"Leipziger Apotheke","storeAddress":{"street":"Leipziger Straße","number":"43","zipCode":"10117","city":"Berlin"},"storeCoordinates":{"longitude":"13.3959459","latitude":"52.5105088"}},{"storeLogo":"Apotheke","storeName":"Bären-Apotheke","storeAddress":{"street":"Friedrichstraße","number":"60","zipCode":"10117","city":"Berlin"},"storeCoordinates":{"longitude":"13.390049","latitude":"52.510659"}},{"storeLogo":"Apotheke","storeName":"West-Apotheke","storeAddress":{"street":"Wulfsdorfer Weg","number":"39","zipCode":"","city":""},"storeCoordinates":{"longitude":"10.220899","latitude":"53.6725178"}},{"storeLogo":"Apotheke","storeName":"Löwenapotheke Waldheim","storeAddress":{"street":"","number":"","zipCode":"","city":""},"storeCoordinates":{"longitude":"13.024036","latitude":"51.0722259"}},{"storeLogo":"Apotheke","storeName":"Ahorn Apotheke","storeAddress":{"street":"","number":"","zipCode":"","city":""},"storeCoordinates":{"longitude":"13.0177448","latitude":"51.0730699"}},{"storeLogo":"Apotheke","storeName":"Mohren Apotheke","storeAddress":{"street":"","number":"","zipCode":"","city":""},"storeCoordinates":{"longitude":"10.1340935","latitude":"54.3387819"}},{"storeLogo":"Apotheke","storeName":"apo-rot Esmarch-Apotheke","storeAddress":{"street":"Holtenauer Straße","number":"149","zipCode":"24118","city":""},"storeCoordinates":{"longitude":"10.1330825","latitude":"54.3415522"}},{"storeLogo":"Apotheke","storeName":"Park Apotheke","storeAddress":{"street":"Bahnhofstraße","number":"5","zipCode":"07426","city":"Königsee-Rottenbach"},"storeCoordinates":{"longitude":"11.1000884","latitude":"50.661246"}},{"storeLogo":"Apotheke","storeName":"Hardt-Apotheke","storeAddress":{"street":"Mittelpfad","number":"23","zipCode":"76351","city":"Linkenheim-Hochstetten"},"storeCoordinates":{"longitude":"8.4120186","latitude":"49.1337427"}},{"storeLogo":"Apotheke","storeName":"Apotheke am Bärenweg","storeAddress":{"street":"Bärenweg","number":"25","zipCode":"76149","city":"Karlsruhe"},"storeCoordinates":{"longitude":"8.3794389","latitude":"49.0467013"}},{"storeLogo":"Apotheke","storeName":"Enten Apotheke","storeAddress":{"street":"Karmelitergasse","number":"2","zipCode":"41844","city":"Wegberg"},"storeCoordinates":{"longitude":"6.2776652","latitude":"51.1404639"}},{"storeLogo":"Apotheke","storeName":"Post Apotheke","storeAddress":{"street":"","number":"","zipCode":"","city":""},"storeCoordinates":{"longitude":"6.2794335","latitude":"51.1440672"}},{"storeLogo":"Apotheke","storeName":"Möwenapotheke","storeAddress":{"street":"","number":"","zipCode":"","city":""},"storeCoordinates":{"longitude":"11.5845746","latitude":"48.1815568"}},{"storeLogo":"Apotheke","storeName":"Kurbrunnen Apotheke","storeAddress":{"street":"Kurbrunnenstraße","number":"44","zipCode":"52066","city":"Aachen"},"storeCoordinates":{"longitude":"6.0953778","latitude":"50.7685515"}},{"storeLogo":"Apotheke","storeName":"Apotheke am Golfplatz","storeAddress":{"street":"","number":"","zipCode":"","city":"Duisburg"},"storeCoordinates":{"longitude":"6.7810448","latitude":"51.3723923"}},{"storeLogo":"Apotheke","storeName":"Preußen-Apotheke","storeAddress":{"street":"Paretzer Straße","number":"2","zipCode":"10713","city":"Berlin"},"storeCoordinates":{"longitude":"13.3190694","latitude":"52.4815485"}},{"storeLogo":"Apotheke","storeName":"Bundes-Apotheke","storeAddress":{"street":"Bundesallee","number":"177","zipCode":"10715","city":"Berlin"},"storeCoordinates":{"longitude":"13.3314064","latitude":"52.4865543"}},{"storeLogo":"Apotheke","storeName":"Mühlenberg-Apotheke","storeAddress":{"street":"Thomas-Mann-Straße","number":"1","zipCode":"10409","city":"Berlin"},"storeCoordinates":{"longitude":"13.4423197","latitude":"52.5431994"}},{"storeLogo":"Apotheke","storeName":"Carola Apotheke","storeAddress":{"street":"Oberfrohnaer Straße","number":"70","zipCode":"09117","city":"Chemnitz"},"storeCoordinates":{"longitude":"12.8332512","latitude":"50.8265487"}},{"storeLogo":"Apotheke","storeName":"Hof-Apotheke Stuttgart","storeAddress":{"street":"Schillerplatz","number":"5","zipCode":"70173","city":"Stuttgart"},"storeCoordinates":{"longitude":"9.1783806","latitude":"48.7775814"}},{"storeLogo":"Apotheke","storeName":"Apotheke Axel Springer Passage","storeAddress":{"street":"","number":"","zipCode":"","city":""},"storeCoordinates":{"longitude":"13.3947881","latitude":"52.5071247"}},{"storeLogo":"Apotheke","storeName":"Markt Apotheke","storeAddress":{"street":"Am Markt","number":"7","zipCode":"26529","city":"Marienhafe"},"storeCoordinates":{"longitude":"7.2719898","latitude":"53.5220343"}},{"storeLogo":"Apotheke","storeName":"Neue Apotheke","storeAddress":{"street":"Solinger Straße","number":"10","zipCode":"42799","city":""},"storeCoordinates":{"longitude":"7.1106612","latitude":"51.116475"}},{"storeLogo":"Apotheke","storeName":"Lotus Apotheke","storeAddress":{"street":"Geibelstraße","number":"31","zipCode":"30173","city":"Hannover"},"storeCoordinates":{"longitude":"9.7558517","latitude":"52.3604202"}},{"storeLogo":"Apotheke","storeName":"Diamant Apotheke","storeAddress":{"street":"Kurt-Schumacher-Damm","number":"1-15","zipCode":"13405","city":"Berlin"},"storeCoordinates":{"longitude":"13.3287743","latitude":"52.5633045"}},{"storeLogo":"Apotheke","storeName":"Apotheke am Markt Reinickendorf","storeAddress":{"street":"Scharnweberstraße","number":"","zipCode":"13405","city":"Berlin"},"storeCoordinates":{"longitude":"13.3170343","latitude":"52.5668918"}},{"storeLogo":"Apotheke","storeName":"Barlach Apotheke","storeAddress":{"street":"Auguste-Viktoria-Allee","number":"81","zipCode":"13403","city":"Berlin"},"storeCoordinates":{"longitude":"13.3213944","latitude":"52.5701291"}},{"storeLogo":"Apotheke","storeName":"Marien-Apotheke","storeAddress":{"street":"Wilhelmsaue","number":"110","zipCode":"10715","city":"Berlin"},"storeCoordinates":{"longitude":"13.320683","latitude":"52.4851086"}},{"storeLogo":"Apotheke","storeName":"Park-Apotheke","storeAddress":{"street":"Bundesallee","number":"55","zipCode":"10715","city":"Berlin"},"storeCoordinates":{"longitude":"13.3289844","latitude":"52.4815398"}},{"storeLogo":"Apotheke","storeName":"Engelbach-Apotheke","storeAddress":{"street":"Buchholzstraße","number":"2","zipCode":"53127","city":"Bonn"},"storeCoordinates":{"longitude":"7.0808339","latitude":"50.6972994"}},{"storeLogo":"Apotheke","storeName":"Zentral Apotheke‎","storeAddress":{"street":"Johannes-Daur-Straße","number":"3","zipCode":"70825","city":"Korntal-Münchingen"},"storeCoordinates":{"longitude":"9.1218309","latitude":"48.8306859"}},{"storeLogo":"Apotheke","storeName":"Apotheke Dr. Beck","storeAddress":{"street":"","number":"","zipCode":"","city":""},"storeCoordinates":{"longitude":"9.1222875","latitude":"48.8296439"}},{"storeLogo":"Apotheke","storeName":"Sofienapotheke","storeAddress":{"street":"Sophienstraße","number":"28","zipCode":"38118","city":"Braunschweig"},"storeCoordinates":{"longitude":"10.5065897","latitude":"52.2582255"}},{"storeLogo":"Apotheke","storeName":"Soma-Apotheke","storeAddress":{"street":"","number":"","zipCode":"","city":""},"storeCoordinates":{"longitude":"7.1121888","latitude":"51.1163939"}},{"storeLogo":"Apotheke","storeName":"Kranich-Apotheke","storeAddress":{"street":"Lindenallee","number":"28","zipCode":"14050","city":"Berlin"},"storeCoordinates":{"longitude":"13.2716196","latitude":"52.510489"}},{"storeLogo":"Apotheke","storeName":"Rathaus-Apotheke","storeAddress":{"street":"Alt Bischofsheim","number":"25","zipCode":"63477","city":""},"storeCoordinates":{"longitude":"8.8062905","latitude":"50.1518332"}},{"storeLogo":"Apotheke","storeName":"Rosen-Apotheke","storeAddress":{"street":"","number":"","zipCode":"","city":""},"storeCoordinates":{"longitude":"8.4376191","latitude":"50.0772021"}},{"storeLogo":"Apotheke","storeName":"Apotheke am Rathaus","storeAddress":{"street":"Naupliaallee","number":"8","zipCode":"85521","city":"Ottobrunn"},"storeCoordinates":{"longitude":"11.6629469","latitude":"48.0642917"}},{"storeLogo":"Apotheke","storeName":"St.-Otto-Apotheke","storeAddress":{"street":"Rosenheimer Landstraße","number":"53","zipCode":"85521","city":"Ottobrunn"},"storeCoordinates":{"longitude":"11.6608571","latitude":"48.0657455"}},{"storeLogo":"Apotheke","storeName":"Barbara Apotheke","storeAddress":{"street":"Röttgener Straße","number":"128","zipCode":"53127","city":"Bonn"},"storeCoordinates":{"longitude":"7.0798288","latitude":"50.6983999"}},{"storeLogo":"Apotheke","storeName":"Wiesenapotheke","storeAddress":{"street":"Tauchaer Straße","number":"260","zipCode":"04349","city":"Leipzig"},"storeCoordinates":{"longitude":"12.4506377","latitude":"51.3830631"}},{"storeLogo":"Apotheke","storeName":"Kur-Apotheke","storeAddress":{"street":"Füssener Straße","number":"32","zipCode":"87645","city":"Schwangau"},"storeCoordinates":{"longitude":"10.7337025","latitude":"47.574853"}},{"storeLogo":"Apotheke","storeName":"Alexander Apotheke Langer","storeAddress":{"street":"Alexanderstraße","number":"125","zipCode":"26121","city":"Oldenburg"},"storeCoordinates":{"longitude":"8.2091678","latitude":"53.1565164"}},{"storeLogo":"Apotheke","storeName":"Apotheke am Wohnpark","storeAddress":{"street":"Berliner Straße","number":"23","zipCode":"30952","city":"Ronnenberg"},"storeCoordinates":{"longitude":"9.6684416","latitude":"52.3405932"}},{"storeLogo":"Apotheke","storeName":"Ilmtal-Apotheke","storeAddress":{"street":"Marktplatz","number":"18","zipCode":"98693","city":"Ilmenau"},"storeCoordinates":{"longitude":"11.0191408","latitude":"50.7015318"}},{"storeLogo":"Apotheke","storeName":"Nordlandapotheke","storeAddress":{"street":"Invalidenstraße","number":"114","zipCode":"10115","city":"Berlin"},"storeCoordinates":{"longitude":"13.3841248","latitude":"52.5306975"}},{"storeLogo":"Apotheke","storeName":"Friedrichstadt Apotheke","storeAddress":{"street":"Glinkastraße","number":"4","zipCode":"10117","city":"Berlin"},"storeCoordinates":{"longitude":"13.3868843","latitude":"52.5117692"}},{"storeLogo":"Apotheke","storeName":"Hohenzollernapotheke","storeAddress":{"street":"Hohenzollernstraße","number":"29","zipCode":"75177","city":"Pforzheim"},"storeCoordinates":{"longitude":"8.7062828","latitude":"48.8964717"}},{"storeLogo":"Apotheke","storeName":"Mendelssohn Apotheke","storeAddress":{"street":"","number":"","zipCode":"","city":""},"storeCoordinates":{"longitude":"9.7553746","latitude":"52.3571302"}},{"storeLogo":"Apotheke","storeName":"Olympia-Apotheke","storeAddress":{"street":"","number":"","zipCode":"","city":""},"storeCoordinates":{"longitude":"11.5198437","latitude":"48.0992554"}},{"storeLogo":"Apotheke","storeName":"Michaelis Apotheke","storeAddress":{"street":"","number":"","zipCode":"","city":""},"storeCoordinates":{"longitude":"9.7611971","latitude":"52.3586593"}},{"storeLogo":"Apotheke","storeName":"Apotheke im Kanzlerfeld","storeAddress":{"street":"David-Mansfeld-Weg","number":"28","zipCode":"38116","city":"Braunschweig"},"storeCoordinates":{"longitude":"10.4567884","latitude":"52.2852425"}},{"storeLogo":"Apotheke","storeName":"Apotheke Leeheim","storeAddress":{"street":"","number":"","zipCode":"","city":""},"storeCoordinates":{"longitude":"8.4418778","latitude":"49.8576131"}},{"storeLogo":"Apotheke","storeName":"Wiemannsche Apotheke","storeAddress":{"street":"Elsässer Straße","number":"3","zipCode":"70435","city":"Stuttgart"},"storeCoordinates":{"longitude":"9.1697108","latitude":"48.83201"}},{"storeLogo":"Apotheke","storeName":"Panorama Apotheke","storeAddress":{"street":"Panoramastraße","number":"1","zipCode":"10178","city":"Berlin"},"storeCoordinates":{"longitude":"13.4096557","latitude":"52.5218379"}},{"storeLogo":"Apotheke","storeName":"Apotheke in den Rathauspassagen","storeAddress":{"street":"","number":"","zipCode":"","city":""},"storeCoordinates":{"longitude":"13.4111159","latitude":"52.519834"}},{"storeLogo":"Apotheke","storeName":"Fischerinsel-Apotheke","storeAddress":{"street":"Gertraudenstraße","number":"19","zipCode":"10178","city":"Berlin"},"storeCoordinates":{"longitude":"13.4053524","latitude":"52.5133809"}},{"storeLogo":"Apotheke","storeName":"Merkur Apotheke","storeAddress":{"street":"Reinmuthstraße","number":"50","zipCode":"76187","city":"Karlsruhe"},"storeCoordinates":{"longitude":"8.3443646","latitude":"49.0306909"}},{"storeLogo":"Apotheke","storeName":"Neuwiedenthaler Apotheke","storeAddress":{"street":"","number":"","zipCode":"","city":""},"storeCoordinates":{"longitude":"9.8759658","latitude":"53.4745703"}},{"storeLogo":"Apotheke","storeName":"Gruitener Apotheke","storeAddress":{"street":"Bahnstraße","number":"23","zipCode":"42781","city":"Haan"},"storeCoordinates":{"longitude":"7.0136172","latitude":"51.2176076"}},{"storeLogo":"Apotheke","storeName":"Apotheke im E-Center","storeAddress":{"street":"Eugenstraße","number":"74","zipCode":"72072","city":"Tübingen"},"storeCoordinates":{"longitude":"9.0699241","latitude":"48.5128578"}},{"storeLogo":"Apotheke","storeName":"Korbinian Apotheke","storeAddress":{"street":"Korbinianstraße","number":"14","zipCode":"85737","city":"Ismaning"},"storeCoordinates":{"longitude":"11.6686808","latitude":"48.2245948"}},{"storeLogo":"Apotheke","storeName":"Apotheke Dr. Aurnhammer","storeAddress":{"street":"Bahnhofstraße","number":"26","zipCode":"85737","city":"Ismaning"},"storeCoordinates":{"longitude":"11.6711978","latitude":"48.2252155"}},{"storeLogo":"Apotheke","storeName":"Falken Apotheke","storeAddress":{"street":"Münchener Straße","number":"38","zipCode":"85737","city":"Ismaning"},"storeCoordinates":{"longitude":"11.6711835","latitude":"48.2265436"}},{"storeLogo":"Apotheke","storeName":"Apotheke im E-Center","storeAddress":{"street":"Keetstraße","number":"19","zipCode":"49393","city":"Lohne"},"storeCoordinates":{"longitude":"8.2309652","latitude":"52.667101"}},{"storeLogo":"Apotheke","storeName":"Marien-Apotheke","storeAddress":{"street":"Marienstraße","number":"55","zipCode":"30171","city":""},"storeCoordinates":{"longitude":"9.7513896","latitude":"52.3696423"}},{"storeLogo":"Apotheke","storeName":"Wilhelm-Apotheke","storeAddress":{"street":"","number":"","zipCode":"","city":""},"storeCoordinates":{"longitude":"9.7530871","latitude":"52.3697572"}},{"storeLogo":"Apotheke","storeName":"Apotheke Schöppenstedt","storeAddress":{"street":"","number":"","zipCode":"","city":""},"storeCoordinates":{"longitude":"10.7752882","latitude":"52.1442627"}},{"storeLogo":"Apotheke","storeName":"Apotheke Itzgrund","storeAddress":{"street":"","number":"","zipCode":"","city":""},"storeCoordinates":{"longitude":"10.8792081","latitude":"50.1234182"}},{"storeLogo":"Apotheke","storeName":"Stadt-Apotheke","storeAddress":{"street":"Karlstraße","number":"19","zipCode":"76133","city":"Karlsruhe"},"storeCoordinates":{"longitude":"8.3952107","latitude":"49.0094397"}},{"storeLogo":"Apotheke","storeName":"Lindenapotheke","storeAddress":{"street":"Schwetzinger Straße","number":"18a","zipCode":"68766","city":"Hockenheim"},"storeCoordinates":{"longitude":"8.546279","latitude":"49.3225198"}},{"storeLogo":"Apotheke","storeName":"Albertus-Magnus-Apotheke","storeAddress":{"street":"Regensburger Straße","number":"8","zipCode":"93138","city":"Lappersdorf"},"storeCoordinates":{"longitude":"12.0902614","latitude":"49.0494783"}},{"storeLogo":"Apotheke","storeName":"Forum-Apotheke","storeAddress":{"street":"Homberger Straße","number":"71","zipCode":"47441","city":"Moers"},"storeCoordinates":{"longitude":"6.6371165","latitude":"51.4501504"}},{"storeLogo":"Apotheke","storeName":"Glocken-Apotheke","storeAddress":{"street":"Homberger Straße","number":"40a","zipCode":"47441","city":"Moers"},"storeCoordinates":{"longitude":"6.6334552","latitude":"51.4502798"}},{"storeLogo":"Apotheke","storeName":"Ernst-August-Apotheke","storeAddress":{"street":"Karmarschstraße","number":"14","zipCode":"30159","city":"Hannover"},"storeCoordinates":{"longitude":"9.7380051","latitude":"52.3738115"}},{"storeLogo":"Apotheke","storeName":"Regenbogen Apotheke","storeAddress":{"street":"Römerstraße","number":"434","zipCode":"47441","city":"Moers"},"storeCoordinates":{"longitude":"6.6617711","latitude":"51.4419098"}},{"storeLogo":"Apotheke","storeName":"Georg Apotheke","storeAddress":{"street":"","number":"","zipCode":"","city":""},"storeCoordinates":{"longitude":"6.6608941","latitude":"51.4406311"}},{"storeLogo":"Apotheke","storeName":"Steintor-Apotheke","storeAddress":{"street":"Paulstraße","number":"48","zipCode":"18055","city":"Rostock"},"storeCoordinates":{"longitude":"12.1396662","latitude":"54.0831615"}},{"storeLogo":"Apotheke","storeName":"Engel-Apotheke","storeAddress":{"street":"Kardinal-von-Galen-Straße","number":"19","zipCode":"46342","city":"Velen"},"storeCoordinates":{"longitude":"6.9892181","latitude":"51.8943935"}},{"storeLogo":"Apotheke","storeName":"Andreas-Apotheke","storeAddress":{"street":"","number":"","zipCode":"46342","city":"Velen"},"storeCoordinates":{"longitude":"6.9855969","latitude":"51.8970514"}},{"storeLogo":"Apotheke","storeName":"Linden-Apotheke","storeAddress":{"street":"","number":"","zipCode":"","city":""},"storeCoordinates":{"longitude":"10.5210465","latitude":"53.2287476"}},{"storeLogo":"Apotheke","storeName":"Apotheke am Sonnenwall","storeAddress":{"street":"Sonnenwall","number":"10","zipCode":"47051","city":"Duisburg"},"storeCoordinates":{"longitude":"6.7636875","latitude":"51.4330934"}},{"storeLogo":"Apotheke","storeName":"Löwen-Apotheke","storeAddress":{"street":"Königstraße","number":"54","zipCode":"","city":"Duisburg"},"storeCoordinates":{"longitude":"6.7704534","latitude":"51.4323684"}},{"storeLogo":"Apotheke","storeName":"Mercator Apotheke","storeAddress":{"street":"Mercatorstraße","number":"10","zipCode":"47051","city":"Duisburg"},"storeCoordinates":{"longitude":"6.7725015","latitude":"51.4313305"}},{"storeLogo":"Apotheke","storeName":"Terrassen-Apotheke","storeAddress":{"street":"Raiherwiesenstraße","number":"19","zipCode":"76227","city":"Karlsruhe"},"storeCoordinates":{"longitude":"8.4590253","latitude":"48.9975939"}},{"storeLogo":"Apotheke","storeName":"Regenbogen-Apotheke","storeAddress":{"street":"","number":"","zipCode":"47623","city":"Kevelaer"},"storeCoordinates":{"longitude":"6.2423941","latitude":"51.5830398"}},{"storeLogo":"Apotheke","storeName":"Stein-Apotheke","storeAddress":{"street":"Ruhesteinstraße","number":"73","zipCode":"77883","city":"Ottenhöfen im Schwarzwald"},"storeCoordinates":{"longitude":"8.1518384","latitude":"48.5677023"}},{"storeLogo":"Apotheke","storeName":"Am Bahnhof","storeAddress":{"street":"Weilimdorfer Straße","number":"10","zipCode":"70825","city":"Korntal-Münchingen"},"storeCoordinates":{"longitude":"9.1211533","latitude":"48.827755"}},{"storeLogo":"Apotheke","storeName":"Bärenapotheke","storeAddress":{"street":"","number":"","zipCode":"","city":"Esslingen am Neckar"},"storeCoordinates":{"longitude":"9.3159713","latitude":"48.7521609"}},{"storeLogo":"Apotheke","storeName":"Burg-Apotheke","storeAddress":{"street":"","number":"","zipCode":"","city":""},"storeCoordinates":{"longitude":"9.3119033","latitude":"48.7498623"}},{"storeLogo":"Apotheke","storeName":"Ostapotheke","storeAddress":{"street":"","number":"","zipCode":"","city":""},"storeCoordinates":{"longitude":"12.4763741","latitude":"50.8479536"}},{"storeLogo":"Apotheke","storeName":"Nord-Apotheke","storeAddress":{"street":"Nordstraße","number":"1 A","zipCode":"52428","city":"Jülich"},"storeCoordinates":{"longitude":"6.3594902","latitude":"50.9303738"}},{"storeLogo":"Apotheke","storeName":"Rur-Apotheke","storeAddress":{"street":"Kleine Kölnstraße","number":"16","zipCode":"52428","city":"Jülich"},"storeCoordinates":{"longitude":"6.3618153","latitude":"50.9216391"}},{"storeLogo":"Apotheke","storeName":"Apotheke an der Bergstraße","storeAddress":{"street":"","number":"","zipCode":"69469","city":"Weinheim"},"storeCoordinates":{"longitude":"8.66398","latitude":"49.5489848"}},{"storeLogo":"Apotheke","storeName":"Apotheke am Markt","storeAddress":{"street":"Vaihinger Markt","number":"16","zipCode":"70563","city":"Stuttgart"},"storeCoordinates":{"longitude":"9.110802","latitude":"48.7309616"}},{"storeLogo":"Apotheke","storeName":"Schwabenland-Apotheke","storeAddress":{"street":"","number":"","zipCode":"70563","city":"Stuttgart"},"storeCoordinates":{"longitude":"9.1116528","latitude":"48.7296592"}},{"storeLogo":"Apotheke","storeName":"Nord-Apotheke","storeAddress":{"street":"Karlstraße","number":"94","zipCode":"03044","city":"Cottbus"},"storeCoordinates":{"longitude":"14.3336048","latitude":"51.7660706"}},{"storeLogo":"Apotheke","storeName":"Dr. Schultes Apotheke","storeAddress":{"street":"Bahnhofstraße","number":"8","zipCode":"85250","city":"Altomünster"},"storeCoordinates":{"longitude":"11.2552083","latitude":"48.3871592"}},{"storeLogo":"Apotheke","storeName":"Vital Apotheke","storeAddress":{"street":"Eckernförder Straße","number":"362","zipCode":"24107","city":"Kiel"},"storeCoordinates":{"longitude":"10.0900355","latitude":"54.3530032"}},{"storeLogo":"Apotheke","storeName":"St. Barbara Apotheke","storeAddress":{"street":"","number":"","zipCode":"","city":""},"storeCoordinates":{"longitude":"7.0541667","latitude":"49.1415632"}},{"storeLogo":"Apotheke","storeName":"Löwen-Apotheke","storeAddress":{"street":"August-Bebel-Straße","number":"49","zipCode":"08393","city":"Meerane"},"storeCoordinates":{"longitude":"12.4666417","latitude":"50.8499736"}},{"storeLogo":"Apotheke","storeName":"Rondell Apotheke","storeAddress":{"street":"Isenschmidstraße","number":"19","zipCode":"81545","city":"München"},"storeCoordinates":{"longitude":"11.5562737","latitude":"48.0907059"}},{"storeLogo":"Apotheke","storeName":"Weinbrenner-Apotheke","storeAddress":{"street":"Gabelsbergerstraße","number":"19","zipCode":"76135","city":"Karlsruhe"},"storeCoordinates":{"longitude":"8.3753382","latitude":"49.0065546"}},{"storeLogo":"Apotheke","storeName":"Universitäts-Apotheke","storeAddress":{"street":"","number":"","zipCode":"","city":""},"storeCoordinates":{"longitude":"8.7045433","latitude":"49.4113905"}},{"storeLogo":"Apotheke","storeName":"Vital-Apotheke im Marktkauf","storeAddress":{"street":"Deichkamp","number":"13","zipCode":"32051","city":"Herford"},"storeCoordinates":{"longitude":"8.6585253","latitude":"52.1131482"}},{"storeLogo":"Apotheke","storeName":"Uhland-Apotheke","storeAddress":{"street":"","number":"","zipCode":"","city":""},"storeCoordinates":{"longitude":"8.6569965","latitude":"52.1191078"}},{"storeLogo":"Apotheke","storeName":"Apotheke Groß Schneen","storeAddress":{"street":"Landstraße","number":"4","zipCode":"37133","city":"Friedland"},"storeCoordinates":{"longitude":"9.9294186","latitude":"51.4381972"}},{"storeLogo":"Apotheke","storeName":"Kreuz Apotheke","storeAddress":{"street":"","number":"","zipCode":"","city":""},"storeCoordinates":{"longitude":"9.7760113","latitude":"52.3291015"}},{"storeLogo":"Apotheke","storeName":"Virchow-Apotheke","storeAddress":{"street":"Virchowstraße","number":"1-3","zipCode":"89075","city":"Ulm"},"storeCoordinates":{"longitude":"9.9451967","latitude":"48.414134"}},{"storeLogo":"Apotheke","storeName":"Löwen-Apotheke","storeAddress":{"street":"Markt","number":"2","zipCode":"01945","city":"Ruhland"},"storeCoordinates":{"longitude":"13.8662263","latitude":"51.4588955"}},{"storeLogo":"Apotheke","storeName":"Heide-Apotheke","storeAddress":{"street":"Schipkauer Straße","number":"12","zipCode":"01987","city":"Schwarzheide"},"storeCoordinates":{"longitude":"13.8684792","latitude":"51.4686705"}},{"storeLogo":"Apotheke","storeName":"Schloss-Apotheke","storeAddress":{"street":"","number":"","zipCode":"","city":""},"storeCoordinates":{"longitude":"8.5167737","latitude":"50.1831901"}},{"storeLogo":"Apotheke","storeName":"Apotheke am Westerbach","storeAddress":{"street":"Westerbachstraße","number":"23","zipCode":"61476","city":"Kronberg im Taunus"},"storeCoordinates":{"longitude":"8.5282342","latitude":"50.1731445"}},{"storeLogo":"Apotheke","storeName":"Paracelsus-Apotheke","storeAddress":{"street":"Weißensteiner Straße","number":"1","zipCode":"73525","city":"Schwäbisch Gmünd"},"storeCoordinates":{"longitude":"9.7996427","latitude":"48.7953571"}},{"storeLogo":"Apotheke","storeName":"Friedrich-Rückert-Apotheke","storeAddress":{"street":"Rodacher Straße","number":"117a","zipCode":"96450","city":"Coburg"},"storeCoordinates":{"longitude":"10.9495336","latitude":"50.273766"}},{"storeLogo":"Apotheke","storeName":"Ulmen Apotheke","storeAddress":{"street":"Hartstraße","number":"50","zipCode":"","city":"Germering"},"storeCoordinates":{"longitude":"11.3755046","latitude":"48.1282873"}},{"storeLogo":"Apotheke","storeName":"Sonnen-Apotheke","storeAddress":{"street":"","number":"","zipCode":"","city":""},"storeCoordinates":{"longitude":"12.0417243","latitude":"49.2057213"}},{"storeLogo":"Apotheke","storeName":"Libellenapotheke","storeAddress":{"street":"Hermann-Löns-Weg","number":"2","zipCode":"38518","city":"Gifhorn"},"storeCoordinates":{"longitude":"10.4964943","latitude":"52.4586951"}},{"storeLogo":"Apotheke","storeName":"Apotheke am Goetheplatz","storeAddress":{"street":"Goetheplatz","number":"6","zipCode":"31582","city":"Nienburg/Weser"},"storeCoordinates":{"longitude":"9.2096344","latitude":"52.6423537"}},{"storeLogo":"Apotheke","storeName":"Neue Apotheke","storeAddress":{"street":"Lange Straße","number":"81","zipCode":"31582","city":"Nienburg/Weser"},"storeCoordinates":{"longitude":"9.2064721","latitude":"52.6408479"}},{"storeLogo":"Apotheke","storeName":"Rats-Apotheke","storeAddress":{"street":"Lange Straße","number":"68","zipCode":"31582","city":"Nienburg/Weser"},"storeCoordinates":{"longitude":"9.2066562","latitude":"52.6405496"}},{"storeLogo":"Apotheke","storeName":"Leintor Apotheke","storeAddress":{"street":"Hannoversche Straße","number":"12","zipCode":"31582","city":"Nienburg/Weser"},"storeCoordinates":{"longitude":"9.21151","latitude":"52.6363767"}},{"storeLogo":"Apotheke","storeName":"Arnica-Apotheke","storeAddress":{"street":"Ollenhauerstraße","number":"139","zipCode":"13403","city":"Berlin"},"storeCoordinates":{"longitude":"13.327994","latitude":"52.5645425"}},{"storeLogo":"Apotheke","storeName":"Neue Apotheke","storeAddress":{"street":"Bernhäuser Hauptstraße","number":"7","zipCode":"70794","city":"Filderstadt"},"storeCoordinates":{"longitude":"9.2169542","latitude":"48.6783296"}},{"storeLogo":"Apotheke","storeName":"Park Apotheke","storeAddress":{"street":"Münchinger Straße","number":"2","zipCode":"71282","city":"Hemmingen"},"storeCoordinates":{"longitude":"9.0351399","latitude":"48.8653187"}},{"storeLogo":"Apotheke","storeName":"Rats Apotheke","storeAddress":{"street":"Bahnhofstraße","number":"2","zipCode":"82131","city":"Gauting"},"storeCoordinates":{"longitude":"11.3798203","latitude":"48.0669554"}},{"storeLogo":"Apotheke","storeName":"Brücken-Apotheke","storeAddress":{"street":"","number":"","zipCode":"","city":""},"storeCoordinates":{"longitude":"9.6971898","latitude":"53.4750512"}},{"storeLogo":"Apotheke","storeName":"Post Apotheke","storeAddress":{"street":"","number":"","zipCode":"","city":""},"storeCoordinates":{"longitude":"9.6911573","latitude":"53.4718148"}},{"storeLogo":"Apotheke","storeName":"Melanchthon-Apotheke","storeAddress":{"street":"Goethestraße","number":"33","zipCode":"04924","city":"Bad Liebenwerda"},"storeCoordinates":{"longitude":"13.4042437","latitude":"51.5247172"}},{"storeLogo":"Apotheke","storeName":"Apotheke Schönow","storeAddress":{"street":"Dorfstraße","number":"4","zipCode":"16321","city":"Bernau bei Berlin"},"storeCoordinates":{"longitude":"13.5371772","latitude":"52.6764069"}},{"storeLogo":"Apotheke","storeName":"Rosen Apotheke","storeAddress":{"street":"Friedrich-Hegel-Straße","number":"116","zipCode":"58239","city":""},"storeCoordinates":{"longitude":"7.5504956","latitude":"51.4415349"}},{"storeLogo":"Apotheke","storeName":"Schleng Apotheke","storeAddress":{"street":"Schlengstraße","number":"31","zipCode":"28309","city":"Bremen"},"storeCoordinates":{"longitude":"8.8940301","latitude":"53.0507857"}},{"storeLogo":"Apotheke","storeName":"Godo-Apotheke","storeAddress":{"street":"","number":"","zipCode":"","city":""},"storeCoordinates":{"longitude":"11.373854","latitude":"48.0721732"}},{"storeLogo":"Apotheke","storeName":"Adler-Apotheke","storeAddress":{"street":"Kappadocia","number":"7","zipCode":"","city":""},"storeCoordinates":{"longitude":"11.0229487","latitude":"49.3301108"}},{"storeLogo":"Apotheke","storeName":"Gartenstadt Apotheke","storeAddress":{"street":"Haverbecker Weg","number":"7","zipCode":"28329","city":"Bremen"},"storeCoordinates":{"longitude":"8.8785118","latitude":"53.0727463"}},{"storeLogo":"Apotheke","storeName":"Stadtapotheke","storeAddress":{"street":"Luisenstraße","number":"2","zipCode":"76456","city":"Kuppenheim"},"storeCoordinates":{"longitude":"8.2552064","latitude":"48.8307353"}},{"storeLogo":"Apotheke","storeName":"Ebersteinapotheke","storeAddress":{"street":"Beethovenstraße","number":"30","zipCode":"76571","city":"Gaggenau"},"storeCoordinates":{"longitude":"8.3292433","latitude":"48.7917964"}},{"storeLogo":"Apotheke","storeName":"Löwenapotheke","storeAddress":{"street":"Igelbachstraße","number":"3","zipCode":"76593","city":"Gernsbach"},"storeCoordinates":{"longitude":"8.3373839","latitude":"48.7633748"}},{"storeLogo":"Apotheke","storeName":"Murgtal-Apotheke","storeAddress":{"street":"Gottlieb-Klumpp-Straße","number":"12","zipCode":"76593","city":"Gernsbach"},"storeCoordinates":{"longitude":"8.3376579","latitude":"48.7644644"}},{"storeLogo":"Apotheke","storeName":"Kur-Apotheke","storeAddress":{"street":"Kurpromenade","number":"31","zipCode":"76332","city":"Bad Herrenalb"},"storeCoordinates":{"longitude":"8.4402933","latitude":"48.8004185"}},{"storeLogo":"Apotheke","storeName":"Am Gesundheitszentrum","storeAddress":{"street":"","number":"","zipCode":"","city":""},"storeCoordinates":{"longitude":"8.5004294","latitude":"49.8310164"}},{"storeLogo":"Apotheke","storeName":"Palmenapotheke","storeAddress":{"street":"Ottostraße","number":"47","zipCode":"85521","city":"Ottobrunn"},"storeCoordinates":{"longitude":"11.6738617","latitude":"48.06192"}},{"storeLogo":"Apotheke","storeName":"Adelheid-Apotheke","storeAddress":{"street":"Augustenstraße","number":"116","zipCode":"80798","city":"München"},"storeCoordinates":{"longitude":"11.5668069","latitude":"48.1548502"}},{"storeLogo":"Apotheke","storeName":"City-Apotheke","storeAddress":{"street":"Schillerstraße","number":"9","zipCode":"80336","city":"München"},"storeCoordinates":{"longitude":"11.5612128","latitude":"48.1380825"}},{"storeLogo":"Apotheke","storeName":"Europa-Apotheke","storeAddress":{"street":"Schützenstraße","number":"12","zipCode":"80335","city":"München"},"storeCoordinates":{"longitude":"11.5623796","latitude":"48.1399858"}},{"storeLogo":"Apotheke","storeName":"Einhorn-Rats-Apotheke","storeAddress":{"street":"Markt","number":"10-12","zipCode":"25813","city":"Husum"},"storeCoordinates":{"longitude":"9.0516159","latitude":"54.4766504"}},{"storeLogo":"Apotheke","storeName":"Storchen-Apotheke","storeAddress":{"street":"Uphuser Heerstraße","number":"10","zipCode":"28832","city":"Achim"},"storeCoordinates":{"longitude":"8.9737314","latitude":"53.0277161"}},{"storeLogo":"Apotheke","storeName":"Alte Apotheke","storeAddress":{"street":"","number":"","zipCode":"","city":""},"storeCoordinates":{"longitude":"9.0310279","latitude":"53.0125539"}},{"storeLogo":"Apotheke","storeName":"Ost Apotheke","storeAddress":{"street":"Osterholzer Heerstraße","number":"162a","zipCode":"28325","city":"Bremen"},"storeCoordinates":{"longitude":"8.9479505","latitude":"53.0582276"}},{"storeLogo":"Apotheke","storeName":"Wittekind-Apotheke","storeAddress":{"street":"Portastraße","number":"41","zipCode":"","city":""},"storeCoordinates":{"longitude":"8.9105267","latitude":"52.2523364"}},{"storeLogo":"Apotheke","storeName":"Liebig Apotheke","storeAddress":{"street":"Anne-Frank-Straße","number":"4","zipCode":"01987","city":"Schwarzheide"},"storeCoordinates":{"longitude":"13.8592377","latitude":"51.4749063"}},{"storeLogo":"Apotheke","storeName":"Christophorus-Apotheke","storeAddress":{"street":"","number":"","zipCode":"","city":""},"storeCoordinates":{"longitude":"11.0303421","latitude":"49.363621"}},{"storeLogo":"Apotheke","storeName":"Park Apotheke","storeAddress":{"street":"","number":"","zipCode":"","city":""},"storeCoordinates":{"longitude":"8.4141055","latitude":"49.4963611"}},{"storeLogo":"Apotheke","storeName":"Apotheke Marktgasse","storeAddress":{"street":"Marktgasse","number":"5","zipCode":"71332","city":"Waiblingen"},"storeCoordinates":{"longitude":"9.3151183","latitude":"48.8328558"}},{"storeLogo":"Apotheke","storeName":"Bahnhof Apotheke Dr. Riethmüller","storeAddress":{"street":"","number":"","zipCode":"","city":""},"storeCoordinates":{"longitude":"9.3104432","latitude":"48.8296053"}},{"storeLogo":"Apotheke","storeName":"St.-Marien-Apotheke","storeAddress":{"street":"Lausitzer Straße","number":"4","zipCode":"90453","city":"Nürnberg"},"storeCoordinates":{"longitude":"11.052216","latitude":"49.3610461"}},{"storeLogo":"Apotheke","storeName":"Apotheke im ärzteZentrum","storeAddress":{"street":"","number":"","zipCode":"","city":""},"storeCoordinates":{"longitude":"12.3762774","latitude":"47.8147476"}},{"storeLogo":"Apotheke","storeName":"Apotheke Urbach","storeAddress":{"street":"","number":"","zipCode":"","city":""},"storeCoordinates":{"longitude":"9.5767018","latitude":"48.8131946"}},{"storeLogo":"Apotheke","storeName":"Stadt-Apotheke","storeAddress":{"street":"","number":"","zipCode":"","city":""},"storeCoordinates":{"longitude":"9.2749296","latitude":"48.8134604"}},{"storeLogo":"Apotheke","storeName":"Löwenapotheke Urbach","storeAddress":{"street":"","number":"","zipCode":"","city":""},"storeCoordinates":{"longitude":"9.5776369","latitude":"48.8099355"}},{"storeLogo":"Apotheke","storeName":"Cityblick Apotheke","storeAddress":{"street":"Joliot-Curie-Allee","number":"49","zipCode":"18147","city":"Rostock"},"storeCoordinates":{"longitude":"12.1380285","latitude":"54.1122327"}},{"storeLogo":"Apotheke","storeName":"St.-Laurentius-Apotheke","storeAddress":{"street":"","number":"","zipCode":"","city":""},"storeCoordinates":{"longitude":"8.3096067","latitude":"48.810656"}},{"storeLogo":"Apotheke","storeName":"Alte Apotheke","storeAddress":{"street":"","number":"","zipCode":"","city":""},"storeCoordinates":{"longitude":"8.6419563","latitude":"50.0863712"}},{"storeLogo":"Apotheke","storeName":"Kissel","storeAddress":{"street":"","number":"","zipCode":"","city":""},"storeCoordinates":{"longitude":"8.6709233","latitude":"50.0891501"}},{"storeLogo":"Apotheke","storeName":"Hellenstein Apotheke","storeAddress":{"street":"","number":"","zipCode":"","city":""},"storeCoordinates":{"longitude":"11.4353554","latitude":"48.151004"}},{"storeLogo":"Apotheke","storeName":"Steinmarktapotheke","storeAddress":{"street":"Steinmarkt","number":"2","zipCode":"93413","city":"Cham"},"storeCoordinates":{"longitude":"12.6648191","latitude":"49.2193411"}},{"storeLogo":"Apotheke","storeName":"Klosterapotheke","storeAddress":{"street":"Steinmarkt","number":"5","zipCode":"93413","city":"Cham"},"storeCoordinates":{"longitude":"12.6643169","latitude":"49.2191834"}},{"storeLogo":"Apotheke","storeName":"Marienapotheke","storeAddress":{"street":"Marktplatz","number":"10","zipCode":"93413","city":"Cham"},"storeCoordinates":{"longitude":"12.6663474","latitude":"49.217382"}},{"storeLogo":"Apotheke","storeName":"Föhren Apotheke","storeAddress":{"street":"Dorfstraße","number":"49","zipCode":"91056","city":"Erlangen"},"storeCoordinates":{"longitude":"10.968058","latitude":"49.5900677"}},{"storeLogo":"Apotheke","storeName":"Scarabeus Apotheke","storeAddress":{"street":"Töpferstraße","number":"17","zipCode":"02625","city":"Bautzen"},"storeCoordinates":{"longitude":"14.4296961","latitude":"51.183164"}},{"storeLogo":"Apotheke","storeName":"Petri-Apotheke","storeAddress":{"street":"","number":"","zipCode":"38550","city":"Isenbüttel"},"storeCoordinates":{"longitude":"10.575801","latitude":"52.4350114"}},{"storeLogo":"Apotheke","storeName":"Bahnhofapotheke","storeAddress":{"street":"Seligenthaler Straße","number":"60","zipCode":"84034","city":""},"storeCoordinates":{"longitude":"12.1417099","latitude":"48.5455254"}},{"storeLogo":"Apotheke","storeName":"Apotheke der Barmherzigen Brüder","storeAddress":{"street":"Bahnhofstraße","number":"107","zipCode":"86633","city":"Neuburg an der Donau"},"storeCoordinates":{"longitude":"11.176886","latitude":"48.7310077"}},{"storeLogo":"Apotheke","storeName":"Löwenapotheke","storeAddress":{"street":"Norderstraße","number":"16","zipCode":"26826","city":"Weener"},"storeCoordinates":{"longitude":"7.3556091","latitude":"53.1659826"}},{"storeLogo":"Apotheke","storeName":"Kolping-Apotheke","storeAddress":{"street":"Klosterstraße","number":"30","zipCode":"92421","city":"Schwandorf"},"storeCoordinates":{"longitude":"12.1051081","latitude":"49.3290017"}},{"storeLogo":"Apotheke","storeName":"Apotheke am Laugk","storeAddress":{"street":"Bahnhofstraße","number":"11","zipCode":"01968","city":"Senftenberg"},"storeCoordinates":{"longitude":"14.0052268","latitude":"51.5209842"}},{"storeLogo":"Apotheke","storeName":"See Apotheke","storeAddress":{"street":"","number":"","zipCode":"","city":""},"storeCoordinates":{"longitude":"9.3642244","latitude":"47.6637104"}},{"storeLogo":"Apotheke","storeName":"Löwen-Apotheke","storeAddress":{"street":"Ringstraße","number":"7","zipCode":"92318","city":"Neumarkt"},"storeCoordinates":{"longitude":"11.4583975","latitude":"49.2768363"}},{"storeLogo":"Apotheke","storeName":"Adler Apotheke","storeAddress":{"street":"","number":"","zipCode":"","city":""},"storeCoordinates":{"longitude":"8.2916236","latitude":"49.4820495"}},{"storeLogo":"Apotheke","storeName":"Falkenapotheke","storeAddress":{"street":"","number":"","zipCode":"","city":""},"storeCoordinates":{"longitude":"9.6031165","latitude":"51.2845192"}},{"storeLogo":"Apotheke","storeName":"Rheiderland Apotheke","storeAddress":{"street":"","number":"","zipCode":"","city":""},"storeCoordinates":{"longitude":"7.35012","latitude":"53.1643922"}},{"storeLogo":"Apotheke","storeName":"Hirschapotheke","storeAddress":{"street":"","number":"","zipCode":"","city":""},"storeCoordinates":{"longitude":"7.3556964","latitude":"53.1662968"}},{"storeLogo":"Apotheke","storeName":"Angerloh-Apotheke","storeAddress":{"street":"Allacher Straße","number":"196","zipCode":"80997","city":"München"},"storeCoordinates":{"longitude":"11.4759366","latitude":"48.1816351"}},{"storeLogo":"Apotheke","storeName":"Apotheke Höfingen","storeAddress":{"street":"","number":"","zipCode":"","city":""},"storeCoordinates":{"longitude":"9.0188227","latitude":"48.8168478"}},{"storeLogo":"Apotheke","storeName":"Rathaus Apotheke","storeAddress":{"street":"","number":"","zipCode":"","city":""},"storeCoordinates":{"longitude":"8.9457211","latitude":"48.8085538"}},{"storeLogo":"Apotheke","storeName":"Sonnenapotheke","storeAddress":{"street":"Pforzheimer Straße","number":"4","zipCode":"71277","city":"Rutesheim"},"storeCoordinates":{"longitude":"8.9448573","latitude":"48.8083212"}},{"storeLogo":"Apotheke","storeName":"Hemelinger Apotheke","storeAddress":{"street":"Hemelinger Bahnhofstraße","number":"16","zipCode":"28309","city":"Bremen"},"storeCoordinates":{"longitude":"8.8859967","latitude":"53.0603424"}},{"storeLogo":"Apotheke","storeName":"Storchen-Apotheke","storeAddress":{"street":"Castroper Straße","number":"213","zipCode":"44791","city":"Bochum"},"storeCoordinates":{"longitude":"7.2438424","latitude":"51.4918481"}},{"storeLogo":"Apotheke","storeName":"Nord-Apotheke","storeAddress":{"street":"Brückenstraße","number":"25","zipCode":"63897","city":"Miltenberg"},"storeCoordinates":{"longitude":"9.2501536","latitude":"49.704897"}},{"storeLogo":"Apotheke","storeName":"Schaefer's Apotheke","storeAddress":{"street":"Obere Pfarrgasse","number":"26","zipCode":"97892","city":"Kreuzwertheim"},"storeCoordinates":{"longitude":"9.5190676","latitude":"49.766954"}},{"storeLogo":"Apotheke","storeName":"Hubertus-Apotheke","storeAddress":{"street":"","number":"","zipCode":"97828","city":""},"storeCoordinates":{"longitude":"9.6030948","latitude":"49.8457774"}},{"storeLogo":"Apotheke","storeName":"Spessart-Apotheke","storeAddress":{"street":"","number":"","zipCode":"97828","city":""},"storeCoordinates":{"longitude":"9.602889","latitude":"49.8449007"}},{"storeLogo":"Apotheke","storeName":"Burg Apotheke","storeAddress":{"street":"Hauptstraße","number":"46","zipCode":"97780","city":"Gössenheim"},"storeCoordinates":{"longitude":"9.7818483","latitude":"50.0179506"}},{"storeLogo":"Apotheke","storeName":"Kosmos Apotheke","storeAddress":{"street":"Berliner Freiheit","number":"1c","zipCode":"28327","city":"Bremen"},"storeCoordinates":{"longitude":"8.8932936","latitude":"53.0796096"}},{"storeLogo":"Apotheke","storeName":"Fortuna Apotheke","storeAddress":{"street":"Dietrich-Bonhoeffer-Straße","number":"1a","zipCode":"28327","city":"Bremen"},"storeCoordinates":{"longitude":"8.9046906","latitude":"53.0787964"}},{"storeLogo":"Apotheke","storeName":"Wihelm-Leuschner-Apotheke","storeAddress":{"street":"Kurt-Schumacher-Allee","number":"19","zipCode":"28329","city":"Bremen"},"storeCoordinates":{"longitude":"8.8853918","latitude":"53.0786293"}},{"storeLogo":"Apotheke","storeName":"Apotheke Klein-Linden","storeAddress":{"street":"Hegweg","number":"2","zipCode":"35398","city":"Gießen"},"storeCoordinates":{"longitude":"8.6496524","latitude":"50.5613153"}},{"storeLogo":"Apotheke","storeName":"Westkreuz-Apotheke","storeAddress":{"street":"","number":"","zipCode":"","city":""},"storeCoordinates":{"longitude":"11.4346316","latitude":"48.1486769"}},{"storeLogo":"Apotheke","storeName":"Iris-Apotheke","storeAddress":{"street":"Sperberstraße","number":"16","zipCode":"41239","city":""},"storeCoordinates":{"longitude":"6.420159","latitude":"51.152958"}},{"storeLogo":"Apotheke","storeName":"Apotheke am Springpfuhl","storeAddress":{"street":"Helene-Weigel-Platz","number":"11","zipCode":"12681","city":"Berlin"},"storeCoordinates":{"longitude":"13.5425973","latitude":"52.5268708"}},{"storeLogo":"Apotheke","storeName":"Poseidon-Apotheke","storeAddress":{"street":"Helene-Weigel-Platz","number":"10","zipCode":"12681","city":"Berlin"},"storeCoordinates":{"longitude":"13.5421939","latitude":"52.5276071"}},{"storeLogo":"Apotheke","storeName":"Skarabäus-Apotheke","storeAddress":{"street":"Oberfeldstraße","number":"30","zipCode":"12683","city":"Berlin"},"storeCoordinates":{"longitude":"13.5558118","latitude":"52.5204665"}},{"storeLogo":"Apotheke","storeName":"Apotheke Paunsdorf","storeAddress":{"street":"","number":"","zipCode":"","city":""},"storeCoordinates":{"longitude":"12.4461131","latitude":"51.3460027"}},{"storeLogo":"Apotheke","storeName":"Schlehen-Apotheke","storeAddress":{"street":"Schlehenweg","number":"28a","zipCode":"04329","city":"Leipzig"},"storeCoordinates":{"longitude":"12.4634399","latitude":"51.353238"}},{"storeLogo":"Apotheke","storeName":"Lintel's Stifts-Apotheke","storeAddress":{"street":"Adelheidisstraße","number":"40","zipCode":"53225","city":"Bonn"},"storeCoordinates":{"longitude":"7.1274059","latitude":"50.7509776"}},{"storeLogo":"Apotheke","storeName":"Remspark-Apotheke","storeAddress":{"street":"Ruhrstraße","number":"5","zipCode":"71332","city":"Waiblingen"},"storeCoordinates":{"longitude":"9.2998127","latitude":"48.8168641"}},{"storeLogo":"Apotheke","storeName":"Busch-Apotheke Kesselbrink","storeAddress":{"street":"Kesselbrink","number":"3","zipCode":"33602","city":"Bielefeld"},"storeCoordinates":{"longitude":"8.536844","latitude":"52.0240901"}},{"storeLogo":"Apotheke","storeName":"Wildbadapotheke","storeAddress":{"street":"Badstraße","number":"6","zipCode":"92318","city":"Neumarkt"},"storeCoordinates":{"longitude":"11.4626298","latitude":"49.2768988"}},{"storeLogo":"Apotheke","storeName":"Sonnenapotheke","storeAddress":{"street":"Sonnenstraße","number":"2","zipCode":"85609","city":"Aschheim"},"storeCoordinates":{"longitude":"11.7184691","latitude":"48.1717455"}},{"storeLogo":"Apotheke","storeName":"Apotheke im Hansa Carré","storeAddress":{"street":"Pfalzburger Straße","number":"41","zipCode":"28207","city":"Bremen"},"storeCoordinates":{"longitude":"8.8704666","latitude":"53.0629066"}},{"storeLogo":"Apotheke","storeName":"Strietwald Apotheke","storeAddress":{"street":"Hasenhägweg","number":"27","zipCode":"63741","city":"Aschaffenburg"},"storeCoordinates":{"longitude":"9.1150259","latitude":"49.9880334"}},{"storeLogo":"Apotheke","storeName":"Apollonia Apotheke","storeAddress":{"street":"Apolloniastraße","number":"3","zipCode":"52134","city":"Herzogenrath"},"storeCoordinates":{"longitude":"6.0954175","latitude":"50.8674651"}},{"storeLogo":"Apotheke","storeName":"Apotheke am Ludwigsplatz","storeAddress":{"street":"In der Witz","number":"61","zipCode":"","city":""},"storeCoordinates":{"longitude":"8.2816726","latitude":"50.0109008"}},{"storeLogo":"Apotheke","storeName":"Farma-Plus Apotheke","storeAddress":{"street":"Am Bahnhof","number":"10","zipCode":"41844","city":"Wegberg"},"storeCoordinates":{"longitude":"6.2833148","latitude":"51.144185"}},{"storeLogo":"Apotheke","storeName":"h&h Apotheke","storeAddress":{"street":"Klosterstraße","number":"1","zipCode":"71229","city":"Leonberg"},"storeCoordinates":{"longitude":"9.0149898","latitude":"48.8014298"}},{"storeLogo":"Apotheke","storeName":"Bahnhofapotheke","storeAddress":{"street":"Pasinger Bahnhofsplatz","number":"1","zipCode":"81241","city":"München"},"storeCoordinates":{"longitude":"11.4602226","latitude":"48.1487302"}},{"storeLogo":"Apotheke","storeName":"Rosen Apotheke","storeAddress":{"street":"","number":"","zipCode":"","city":"Duisburg"},"storeCoordinates":{"longitude":"6.7964431","latitude":"51.3922207"}},{"storeLogo":"Apotheke","storeName":"Ludgeri Apotheke","storeAddress":{"street":"","number":"","zipCode":"","city":""},"storeCoordinates":{"longitude":"7.1089864","latitude":"52.1182986"}},{"storeLogo":"Apotheke","storeName":"Werinherapotheke","storeAddress":{"street":"Schlierseestraße","number":"33","zipCode":"81539","city":"München"},"storeCoordinates":{"longitude":"11.5929323","latitude":"48.1144826"}},{"storeLogo":"Apotheke","storeName":"Linden-Apotheke","storeAddress":{"street":"Vorster Straße","number":"536","zipCode":"41169","city":""},"storeCoordinates":{"longitude":"6.3420705","latitude":"51.2055966"}},{"storeLogo":"Apotheke","storeName":"Nikolaus-Apotheke","storeAddress":{"street":"Vorster Straße","number":"508","zipCode":"41169","city":""},"storeCoordinates":{"longitude":"6.3430645","latitude":"51.2048236"}},{"storeLogo":"Apotheke","storeName":"Apotheke Schonungen","storeAddress":{"street":"Hofheimer Straße","number":"6","zipCode":"97453","city":"Schonungen"},"storeCoordinates":{"longitude":"10.3036373","latitude":"50.0514846"}},{"storeLogo":"Apotheke","storeName":"Uhland-Apotheke","storeAddress":{"street":"Feuerseestraße","number":"13","zipCode":"73614","city":"Schorndorf"},"storeCoordinates":{"longitude":"9.5330978","latitude":"48.8035443"}},{"storeLogo":"Apotheke","storeName":"Rhein-Apotheke","storeAddress":{"street":"Hauptstraße","number":"2","zipCode":"77839","city":"Lichtenau"},"storeCoordinates":{"longitude":"8.0089095","latitude":"48.7277591"}},{"storeLogo":"Apotheke","storeName":"Bacciocco-Apotheke","storeAddress":{"street":"Marktplatz","number":"5","zipCode":"52428","city":"Jülich"},"storeCoordinates":{"longitude":"6.358251","latitude":"50.9216605"}},{"storeLogo":"Apotheke","storeName":"Post-Apotheke","storeAddress":{"street":"Kölnstraße","number":"19","zipCode":"52428","city":"Jülich"},"storeCoordinates":{"longitude":"6.3601236","latitude":"50.9225557"}},{"storeLogo":"Apotheke","storeName":"Flora-Apotheke","storeAddress":{"street":"Leipziger Straße","number":"217","zipCode":"38124","city":"Braunschweig"},"storeCoordinates":{"longitude":"10.5237274","latitude":"52.2108083"}},{"storeLogo":"Apotheke","storeName":"Apotheke Am Markt","storeAddress":{"street":"","number":"","zipCode":"","city":""},"storeCoordinates":{"longitude":"10.5226559","latitude":"52.2130157"}},{"storeLogo":"Apotheke","storeName":"Röderberg - Apotheke","storeAddress":{"street":"","number":"","zipCode":"","city":""},"storeCoordinates":{"longitude":"8.7112164","latitude":"50.1190975"}},{"storeLogo":"Apotheke","storeName":"Altstadt-Apotheke","storeAddress":{"street":"Breite Straße","number":"15","zipCode":"92421","city":"Schwandorf"},"storeCoordinates":{"longitude":"12.1065245","latitude":"49.3290519"}},{"storeLogo":"Apotheke","storeName":"Industrieapotheke","storeAddress":{"street":"Brückenstraße","number":"1","zipCode":"35576","city":"Wetzlar"},"storeCoordinates":{"longitude":"8.5025449","latitude":"50.5601987"}},{"storeLogo":"Apotheke","storeName":"Spitzweg Apotheke","storeAddress":{"street":"Kleikstraße","number":"31","zipCode":"52134","city":"Herzogenrath"},"storeCoordinates":{"longitude":"6.0944122","latitude":"50.8681239"}},{"storeLogo":"Apotheke","storeName":"Walpurgis-Apotheke","storeAddress":{"street":"Keferloherstraße","number":"103","zipCode":"80807","city":"München"},"storeCoordinates":{"longitude":"11.5732837","latitude":"48.1819549"}},{"storeLogo":"Apotheke","storeName":"Kurfürsten Apotheke","storeAddress":{"street":"Sonneberger Straße","number":"2","zipCode":"28329","city":"Bremen"},"storeCoordinates":{"longitude":"8.8762607","latitude":"53.0790318"}},{"storeLogo":"Apotheke","storeName":"St. Gotthard-Apotheke","storeAddress":{"street":"Sankt-Gotthard-Straße","number":"3","zipCode":"28325","city":"Bremen"},"storeCoordinates":{"longitude":"8.9499349","latitude":"53.0639645"}},{"storeLogo":"Apotheke","storeName":"Engel Apotheke","storeAddress":{"street":"Sankt-Gotthard-Straße","number":"33a","zipCode":"28325","city":"Bremen"},"storeCoordinates":{"longitude":"8.952674","latitude":"53.0656934"}},{"storeLogo":"Apotheke","storeName":"Center Apotheke","storeAddress":{"street":"Otto-Brenner-Allee","number":"44","zipCode":"28325","city":"Bremen"},"storeCoordinates":{"longitude":"8.9638505","latitude":"53.0622016"}},{"storeLogo":"Apotheke","storeName":"Bismarck-Apotheke","storeAddress":{"street":"Bismarckstraße","number":"72","zipCode":"40210","city":"Düsseldorf"},"storeCoordinates":{"longitude":"6.7876431","latitude":"51.2216835"}},{"storeLogo":"Apotheke","storeName":"Fritz-Reuter-Apotheke","storeAddress":{"street":"Doberaner Straße","number":"43b","zipCode":"","city":""},"storeCoordinates":{"longitude":"12.115109","latitude":"54.0909309"}},{"storeLogo":"Apotheke","storeName":"Brunnen-Apotheke","storeAddress":{"street":"Ottostraße","number":"5","zipCode":"85521","city":"Ottobrunn"},"storeCoordinates":{"longitude":"11.6662002","latitude":"48.0597227"}},{"storeLogo":"Apotheke","storeName":"LUNA-Apotheke","storeAddress":{"street":"Rosenheimer Landstraße","number":"107","zipCode":"85521","city":"Hohenbrunn"},"storeCoordinates":{"longitude":"11.6671979","latitude":"48.056935"}},{"storeLogo":"Apotheke","storeName":"Halden-Apotheke","storeAddress":{"street":"Weidacher Steige","number":"20","zipCode":"70771","city":"Leinfelden-Echterdingen"},"storeCoordinates":{"longitude":"9.1709624","latitude":"48.6710346"}},{"storeLogo":"Apotheke","storeName":"Sonnen-Apotheke","storeAddress":{"street":"Pionierstraße","number":"48","zipCode":"40215","city":"Düsseldorf"},"storeCoordinates":{"longitude":"6.7857224","latitude":"51.2156268"}},{"storeLogo":"Apotheke","storeName":"Sibelius-Apotheke","storeAddress":{"street":"","number":"","zipCode":"","city":""},"storeCoordinates":{"longitude":"11.4701234","latitude":"48.1545242"}},{"storeLogo":"Apotheke","storeName":"Victoria-Apotheke","storeAddress":{"street":"Ackerstraße","number":"157","zipCode":"40233","city":"Düsseldorf"},"storeCoordinates":{"longitude":"6.8068442","latitude":"51.2295353"}},{"storeLogo":"Apotheke","storeName":"Birken","storeAddress":{"street":"","number":"","zipCode":"","city":""},"storeCoordinates":{"longitude":"6.8018922","latitude":"51.2277064"}},{"storeLogo":"Apotheke","storeName":"Brücken-Apotheke","storeAddress":{"street":"","number":"","zipCode":"","city":""},"storeCoordinates":{"longitude":"6.7994595","latitude":"51.2299825"}},{"storeLogo":"Apotheke","storeName":"Flur","storeAddress":{"street":"","number":"","zipCode":"","city":""},"storeCoordinates":{"longitude":"6.8141815","latitude":"51.2282582"}},{"storeLogo":"Apotheke","storeName":"Apotheke am Worringer Platz","storeAddress":{"street":"","number":"","zipCode":"","city":""},"storeCoordinates":{"longitude":"6.7957816","latitude":"51.2248446"}},{"storeLogo":"Apotheke","storeName":"Arnika Apotheke","storeAddress":{"street":"Korbacher Straße","number":"43","zipCode":"","city":""},"storeCoordinates":{"longitude":"9.3779284","latitude":"51.2723575"}},{"storeLogo":"Apotheke","storeName":"Rathaus Apotheke (Lorenz Apotheke)","storeAddress":{"street":"Marktplatz","number":"4","zipCode":"34225","city":"Baunatal"},"storeCoordinates":{"longitude":"9.413966","latitude":"51.255624"}},{"storeLogo":"Apotheke","storeName":"Severin-Apotheke","storeAddress":{"street":"","number":"","zipCode":"","city":""},"storeCoordinates":{"longitude":"6.9588382","latitude":"50.9239554"}},{"storeLogo":"Apotheke","storeName":"Zentralplatz-Apotheke","storeAddress":{"street":"Klostergasse","number":"10","zipCode":"95326","city":"Kulmbach"},"storeCoordinates":{"longitude":"11.4560774","latitude":"50.1081426"}},{"storeLogo":"Apotheke","storeName":"Obere Apotheke","storeAddress":{"street":"Obere Stadt","number":"2","zipCode":"95326","city":"Kulmbach"},"storeCoordinates":{"longitude":"11.4587837","latitude":"50.1068835"}},{"storeLogo":"Apotheke","storeName":"Stern-Apotheke","storeAddress":{"street":"Ludwigstraße","number":"17","zipCode":"72072","city":"Tübingen"},"storeCoordinates":{"longitude":"9.0656985","latitude":"48.5135187"}},{"storeLogo":"Apotheke","storeName":"Schloss Apotheke","storeAddress":{"street":"Bahnhofstraße","number":"33","zipCode":"75203","city":"Königsbach-Stein"},"storeCoordinates":{"longitude":"8.6108182","latitude":"48.9637485"}},{"storeLogo":"Apotheke","storeName":"Sonnen-Apotheke","storeAddress":{"street":"Am Weidengraben","number":"3","zipCode":"","city":"Trier"},"storeCoordinates":{"longitude":"6.6854692","latitude":"49.7513251"}},{"storeLogo":"Apotheke","storeName":"Adler-Apotheke","storeAddress":{"street":"Porta-Nigra-Platz","number":"2","zipCode":"54292","city":"Trier"},"storeCoordinates":{"longitude":"6.6452222","latitude":"49.7598504"}},{"storeLogo":"Apotheke","storeName":"Liebig-Apotheke","storeAddress":{"street":"Windmühlenstraße","number":"41","zipCode":"04107","city":"Leipzig"},"storeCoordinates":{"longitude":"12.3809406","latitude":"51.3316064"}},{"storeLogo":"Apotheke","storeName":"Apotheke im famila Markt","storeAddress":{"street":"","number":"","zipCode":"","city":""},"storeCoordinates":{"longitude":"10.054219","latitude":"54.3228836"}},{"storeLogo":"Apotheke","storeName":"Mettenhof Apotheke","storeAddress":{"street":"","number":"","zipCode":"","city":""},"storeCoordinates":{"longitude":"10.0525795","latitude":"54.3216229"}},{"storeLogo":"Apotheke","storeName":"Löwen-Apotheke","storeAddress":{"street":"Zum Großen Freien","number":"15 A","zipCode":"31275","city":"Lehrte"},"storeCoordinates":{"longitude":"9.9085794","latitude":"52.3659854"}},{"storeLogo":"Apotheke","storeName":"Marienapotheke","storeAddress":{"street":"Marktplatz","number":"6","zipCode":"92421","city":"Schwandorf"},"storeCoordinates":{"longitude":"12.107842","latitude":"49.3301231"}},{"storeLogo":"Apotheke","storeName":"Ubo Apotheke","storeAddress":{"street":"Limesstraße","number":"33","zipCode":"81243","city":"München"},"storeCoordinates":{"longitude":"11.4202536","latitude":"48.1513334"}},{"storeLogo":"Apotheke","storeName":"Liebig","storeAddress":{"street":"Gaimersheimer Straße","number":"51a","zipCode":"85057","city":"Ingolstadt"},"storeCoordinates":{"longitude":"11.4064058","latitude":"48.7767729"}},{"storeLogo":"Apotheke","storeName":"West-Apotheke","storeAddress":{"street":"","number":"","zipCode":"","city":""},"storeCoordinates":{"longitude":"8.0958418","latitude":"49.1915646"}},{"storeLogo":"Apotheke","storeName":"Rats-Apotheke","storeAddress":{"street":"","number":"","zipCode":"","city":""},"storeCoordinates":{"longitude":"11.6628658","latitude":"48.0759492"}},{"storeLogo":"Apotheke","storeName":"am Rosengarten","storeAddress":{"street":"","number":"","zipCode":"","city":""},"storeCoordinates":{"longitude":"6.8956992","latitude":"50.9600094"}},{"storeLogo":"Apotheke","storeName":"Rathaus-Apotheke","storeAddress":{"street":"Marktstraße","number":"15","zipCode":"75305","city":"Neuenbürg"},"storeCoordinates":{"longitude":"8.588588","latitude":"48.8460668"}},{"storeLogo":"Apotheke","storeName":"Mühlenhof-Apotheke","storeAddress":{"street":"Clausewitzstraße","number":"1","zipCode":"26125","city":"Oldenburg"},"storeCoordinates":{"longitude":"8.2458939","latitude":"53.162909"}},{"storeLogo":"Apotheke","storeName":"Vital Apotheke","storeAddress":{"street":"","number":"","zipCode":"","city":""},"storeCoordinates":{"longitude":"6.9612142","latitude":"50.6241487"}},{"storeLogo":"Apotheke","storeName":"Menge Apotheke","storeAddress":{"street":"","number":"","zipCode":"21107","city":"Hamburg"},"storeCoordinates":{"longitude":"9.992668","latitude":"53.5017848"}},{"storeLogo":"Apotheke","storeName":"Arkaden-Apotheke","storeAddress":{"street":"Karlstraße","number":"6","zipCode":"71254","city":"Ditzingen"},"storeCoordinates":{"longitude":"8.982736","latitude":"48.852555"}},{"storeLogo":"Apotheke","storeName":"Marien Apotheke","storeAddress":{"street":"Eckenheimer Landstraße","number":"244","zipCode":"60320","city":"Frankfurt am Main"},"storeCoordinates":{"longitude":"8.6843988","latitude":"50.1418424"}},{"storeLogo":"Apotheke","storeName":"Jütland Apotheke","storeAddress":{"street":"Jütlandring","number":"24","zipCode":"24109","city":"Kiel"},"storeCoordinates":{"longitude":"10.0507453","latitude":"54.3140365"}},