{"retailerName":"Douglas","retailerStoreList":[{"storeLogo":"Douglas","storeName":"Douglas Peine","storeAddress":{"street":"Breite Str.","number":"20","zipCode":"31224","city":"Peine"},"storeCoordinates":{"latitude":"52.3217118"}},{"storeLogo":"Douglas","storeName":"Douglas Goslar","storeAddress":{"street":"Fischemäkerstr.","number":"1","zipCode":"38640","city":"Goslar"},"storeCoordinates":{"latitude":"51.9067875"}},{"storeLogo":"Douglas","storeName":"Douglas Hamburg","storeAddress":{"street":"Neue Große Bergstr.","number":"12-16","zipCode":"22767","city":"Hamburg"},"storeCoordinates":{"latitude":"51.9067875"}},{"storeLogo":"Douglas","storeName":"Douglas Frankenthal","storeAddress":{"street":"Speyerer Str.","number":"28","zipCode":"67227","city":"Frankenthal"},"storeCoordinates":{"latitude":"49.533972"}},{"storeLogo":"Douglas","storeName":"Douglas Bad Vilbel","storeAddress":{"street":"Frankfurter Str.","number":"67","zipCode":"61118","city":"Bad Vilbel"},"storeCoordinates":{"latitude":"50.1803426"}},{"storeLogo":"Douglas","storeName":"Douglas Heidelberg","storeAddress":{"street":"Hauptstr.","number":"2","zipCode":"69117","city":"Heidelberg"},"storeCoordinates":{"latitude":"49.4097577"}},{"storeLogo":"Douglas","storeName":"Douglas Mannheim","storeAddress":{"street":"P5","number":"1-4","zipCode":"68161","city":"Mannheim"},"storeCoordinates":{"latitude":"49.4864401"}},{"storeLogo":"Douglas","storeName":"Douglas Buchholz in der Nordheide","storeAddress":{"street":"Breite Strasse","number":"16","zipCode":"21244","city":"Buchholz in der Nordheide"},"storeCoordinates":{"latitude":"53.3274649"}},{"storeLogo":"Douglas","storeName":"Douglas Braunschweig","storeAddress":{"street":"Damm","number":"9","zipCode":"38100","city":"Braunschweig"},"storeCoordinates":{"latitude":"52.2624589"}},{"storeLogo":"Douglas","storeName":"Douglas Bielefeld","storeAddress":{"street":"Bahnhofstr.","number":"28","zipCode":"33602","city":"Bielefeld"},"storeCoordinates":{"latitude":"52.0256763"}},{"storeLogo":"Douglas","storeName":"Douglas Würzburg","storeAddress":{"street":"Beim Grafeneckart","number":"10","zipCode":"97070","city":"Würzburg"},"storeCoordinates":{"latitude":"49.7926331"}},{"storeLogo":"Douglas","storeName":"Douglas Hildesheim","storeAddress":{"street":"Hoher Weg","number":"1a","zipCode":"31134","city":"Hildesheim"},"storeCoordinates":{"latitude":"52.1528092"}},{"storeLogo":"Douglas","storeName":"Douglas Saarbrücken","storeAddress":{"street":"Bahnhofstr.","number":"47","zipCode":"66111","city":"Saarbrücken"},"storeCoordinates":{"latitude":"49.2354513"}},{"storeLogo":"Douglas","storeName":"Douglas Hildesheim","storeAddress":{"street":"Kaiserstraße","number":"10","zipCode":"31134","city":"Hildesheim"},"storeCoordinates":{"latitude":"52.1551105"}},{"storeLogo":"Douglas","storeName":"Douglas Iserlohn","storeAddress":{"street":"Wermingser Str.","number":"21","zipCode":"58636","city":"Iserlohn"},"storeCoordinates":{"latitude":"51.3742291"}},{"storeLogo":"Douglas","storeName":"Douglas Ludwigshafen","storeAddress":{"street":"Rathausplatz","number":"20","zipCode":"67059","city":"Ludwigshafen"},"storeCoordinates":{"latitude":"49.4850651"}},{"storeLogo":"Douglas","storeName":"Douglas Frankfurt","storeAddress":{"street":"Kaiserstr.","number":"1","zipCode":"60311","city":"Frankfurt"},"storeCoordinates":{"latitude":"50.1116506"}},{"storeLogo":"Douglas","storeName":"Douglas Karlsruhe","storeAddress":{"street":"Kaiserstr.","number":"104","zipCode":"76133","city":"Karlsruhe"},"storeCoordinates":{"latitude":"49.0099605"}},{"storeLogo":"Douglas","storeName":"Douglas Hamburg","storeAddress":{"street":"Jungfernstieg","number":"24","zipCode":"20354","city":"Hamburg"},"storeCoordinates":{"latitude":"53.5533176"}},{"storeLogo":"Douglas","storeName":"Douglas Hamburg","storeAddress":{"street":"Neuer Wall","number":"1-5","zipCode":"20354","city":"Hamburg"},"storeCoordinates":{"latitude":"53.5524616"}},{"storeLogo":"Douglas","storeName":"Douglas Hamburg","storeAddress":{"street":"Eppendorfer Landstr.","number":"1","zipCode":"20249","city":"Hamburg"},"storeCoordinates":{"latitude":"53.5859165"}},{"storeLogo":"Douglas","storeName":"Douglas Hamburg","storeAddress":{"street":"Glockengießerwall","number":"8-10","zipCode":"20095","city":"Hamburg"},"storeCoordinates":{"latitude":"53.5529172"}},{"storeLogo":"Douglas","storeName":"Douglas Hamburg","storeAddress":{"street":"Fuhlsbüttler Str.","number":"123","zipCode":"22305","city":"Hamburg"},"storeCoordinates":{"latitude":"53.5901444"}},{"storeLogo":"Douglas","storeName":"Douglas Hamburg","storeAddress":{"street":"Hamburger Str.","number":"27","zipCode":"22083","city":"Hamburg"},"storeCoordinates":{"latitude":"53.57334359999999"}},{"storeLogo":"Douglas","storeName":"Douglas Hamburg","storeAddress":{"street":"Blankeneser Bahnhofstr.","number":"20","zipCode":"22587","city":"Hamburg"},"storeCoordinates":{"latitude":"53.5601312"}},{"storeLogo":"Douglas","storeName":"Douglas Hamburg","storeAddress":{"street":"Heegbarg","number":"31","zipCode":"22391","city":"Hamburg"},"storeCoordinates":{"latitude":"53.6543125"}},{"storeLogo":"Douglas","storeName":"Douglas Wilhelmshaven","storeAddress":{"street":"Marktstr.","number":"40","zipCode":"26382","city":"Wilhelmshaven"},"storeCoordinates":{"latitude":"53.519756"}},{"storeLogo":"Douglas","storeName":"Douglas Oldenburg","storeAddress":{"street":"Lange Str.","number":"72","zipCode":"26122","city":"Oldenburg"},"storeCoordinates":{"latitude":"53.1411216"}},{"storeLogo":"Douglas","storeName":"Douglas Mannheim","storeAddress":{"street":"P7","number":"25","zipCode":"68161","city":"Mannheim"},"storeCoordinates":{"latitude":"49.485764"}},{"storeLogo":"Douglas","storeName":"Douglas Mannheim","storeAddress":{"street":"Q1","number":"5-6","zipCode":"68161","city":"Mannheim"},"storeCoordinates":{"latitude":"49.4887885"}},{"storeLogo":"Douglas","storeName":"Douglas Hamburg","storeAddress":{"street":"Mönckebergstr.","number":"8","zipCode":"20095","city":"Hamburg"},"storeCoordinates":{"latitude":"53.551645"}},{"storeLogo":"Douglas","storeName":"Douglas Nürnberg","storeAddress":{"street":"Glogauer Str.","number":"30-38","zipCode":"90473","city":"Nürnberg"},"storeCoordinates":{"latitude":"49.4027393"}},{"storeLogo":"Douglas","storeName":"Douglas Minden","storeAddress":{"street":"Bäckerstr.","number":"45","zipCode":"32423","city":"Minden"},"storeCoordinates":{"latitude":"52.2903226"}},{"storeLogo":"Douglas","storeName":"Douglas Detmold","storeAddress":{"street":"Lange Str.","number":"47","zipCode":"32756","city":"Detmold"},"storeCoordinates":{"latitude":"51.93511119999999"}},{"storeLogo":"Douglas","storeName":"Douglas Elmshorn","storeAddress":{"street":"Königstr.","number":"40","zipCode":"25335","city":"Elmshorn"},"storeCoordinates":{"latitude":"53.7535156"}},{"storeLogo":"Douglas","storeName":"Douglas Hamburg","storeAddress":{"street":"Sachsentor","number":"28","zipCode":"21029","city":"Hamburg"},"storeCoordinates":{"latitude":"53.4876741"}},{"storeLogo":"Douglas","storeName":"Douglas Göttingen","storeAddress":{"street":"Weender Str.","number":"48","zipCode":"37073","city":"Göttingen"},"storeCoordinates":{"latitude":"515.341.995"}},{"storeLogo":"Douglas","storeName":"Douglas Lübeck","storeAddress":{"street":"Breite Str.","number":"95-97","zipCode":"23552","city":"Lübeck"},"storeCoordinates":{"latitude":"53.86620079999999"}},{"storeLogo":"Douglas","storeName":"Douglas Hameln","storeAddress":{"street":"Bäckerstr.","number":"9","zipCode":"31785","city":"Hameln"},"storeCoordinates":{"latitude":"52.1033868"}},{"storeLogo":"Douglas","storeName":"Douglas Neumünster","storeAddress":{"street":"Gänsemarkt","number":"1","zipCode":"24534","city":"Neumünster"},"storeCoordinates":{"latitude":"54.0740561"}},{"storeLogo":"Douglas","storeName":"Douglas Bremerhaven","storeAddress":{"street":"Obere Bürgerstr.","number":"25-27","zipCode":"27568","city":"Bremerhaven"},"storeCoordinates":{"latitude":"53.5604822"}},{"storeLogo":"Douglas","storeName":"Douglas Düsseldorf","storeAddress":{"street":"Schadow-Arkaden","number":"11","zipCode":"40212","city":"Düsseldorf"},"storeCoordinates":{"latitude":"51.2259612"}},{"storeLogo":"Douglas","storeName":"Douglas Eckernförde","storeAddress":{"street":"Kieler Str.","number":"50-52","zipCode":"24340","city":"Eckernförde"},"storeCoordinates":{"latitude":"54.47013"}},{"storeLogo":"Douglas","storeName":"Douglas Bremen","storeAddress":{"street":"Sögestr.","number":"31","zipCode":"28195","city":"Bremen"},"storeCoordinates":{"latitude":"53.07760769999999"}},{"storeLogo":"Douglas","storeName":"Douglas Neu-Isenburg","storeAddress":{"street":"Hermesstr.","number":"4","zipCode":"63263","city":"Neu-Isenburg"},"storeCoordinates":{"latitude":"50.0487954"}},{"storeLogo":"Douglas","storeName":"Douglas Osnabrück","storeAddress":{"street":"Nikolaiort","number":"7-9","zipCode":"49074","city":"Osnabrück"},"storeCoordinates":{"latitude":"52.27570679999999"}},{"storeLogo":"Douglas","storeName":"Douglas Delmenhorst","storeAddress":{"street":"Lange Str.","number":"106","zipCode":"27749","city":"Delmenhorst"},"storeCoordinates":{"latitude":"53.0488478"}},{"storeLogo":"Douglas","storeName":"Douglas Bad Homburg","storeAddress":{"street":"Louisenstr.","number":"35","zipCode":"61348","city":"Bad Homburg"},"storeCoordinates":{"latitude":"50.2277113"}},{"storeLogo":"Douglas","storeName":"Douglas Kaiserslautern","storeAddress":{"street":"Fackelstr.","number":"10","zipCode":"67655","city":"Kaiserslautern"},"storeCoordinates":{"latitude":"49.4433678"}},{"storeLogo":"Douglas","storeName":"Douglas Karlsruhe","storeAddress":{"street":"Ettlinger-Tor-Platz","number":"1","zipCode":"76133","city":"Karlsruhe"},"storeCoordinates":{"latitude":"49.0073629"}},{"storeLogo":"Douglas","storeName":"Douglas Regensburg","storeAddress":{"street":"Friedenstr.","number":"23","zipCode":"93053","city":"Regensburg"},"storeCoordinates":{"latitude":"49.0107626"}},{"storeLogo":"Douglas","storeName":"Douglas München","storeAddress":{"street":"Theatinerstr.","number":"40","zipCode":"80333","city":"München"},"storeCoordinates":{"latitude":"48.1401912"}},{"storeLogo":"Douglas","storeName":"Douglas Halle-Neustadt","storeAddress":{"street":"Neustädter Passage","number":"17","zipCode":"06122","city":"Halle-Neustadt"},"storeCoordinates":{"latitude":"51.4795512"}},{"storeLogo":"Douglas","storeName":"Douglas Köln","storeAddress":{"street":"Schildergasse","number":"39","zipCode":"50667","city":"Köln"},"storeCoordinates":{"latitude":"50.9363049"}},{"storeLogo":"Douglas","storeName":"Douglas Köln","storeAddress":{"street":"Hohe Str.","number":"148-150","zipCode":"50667","city":"Köln"},"storeCoordinates":{"latitude":"50.9394639"}},{"storeLogo":"Douglas","storeName":"Douglas Krefeld","storeAddress":{"street":"Hochstraße","number":"123","zipCode":"47798","city":"Krefeld"},"storeCoordinates":{"latitude":"51.3329428"}},{"storeLogo":"Douglas","storeName":"Douglas Neuss","storeAddress":{"street":"Büchel","number":"47","zipCode":"41460","city":"Neuss"},"storeCoordinates":{"latitude":"51.1992594"}},{"storeLogo":"Douglas","storeName":"Douglas Düren","storeAddress":{"street":"Wirtelstr.","number":"31","zipCode":"52349","city":"Düren"},"storeCoordinates":{"latitude":"50.8038745"}},{"storeLogo":"Douglas","storeName":"Douglas Neumarkt","storeAddress":{"street":"Dammstr.","number":"1","zipCode":"92318","city":"Neumarkt"},"storeCoordinates":{"latitude":"49.282774"}},{"storeLogo":"Douglas","storeName":"Douglas Köln","storeAddress":{"street":"Kalker Hauptstr.","number":"55","zipCode":"51103","city":"Köln"},"storeCoordinates":{"latitude":"50.9391437"}},{"storeLogo":"Douglas","storeName":"Douglas Viernheim","storeAddress":{"street":"EKZ Rhein Neckar Zentrum","number":"0","zipCode":"68519","city":"Viernheim"},"storeCoordinates":{"latitude":"49.5264031"}},{"storeLogo":"Douglas","storeName":"Douglas Bochum","storeAddress":{"street":"Am Einkaufszentrum","number":"1","zipCode":"44791","city":"Bochum"},"storeCoordinates":{"latitude":"51.4946206"}},{"storeLogo":"Douglas","storeName":"Douglas Düsseldorf","storeAddress":{"street":"Schadowstr.","number":"26","zipCode":"40212","city":"Düsseldorf"},"storeCoordinates":{"latitude":"51.2261837"}},{"storeLogo":"Douglas","storeName":"Douglas Aachen","storeAddress":{"street":"Adalbertstr.","number":"37","zipCode":"52062","city":"Aachen"},"storeCoordinates":{"latitude":"50.7751041"}},{"storeLogo":"Douglas","storeName":"Douglas München","storeAddress":{"street":"Am Willy-Brandt-Platz","number":"5","zipCode":"81829","city":"München"},"storeCoordinates":{"latitude":"48.1322825"}},{"storeLogo":"Douglas","storeName":"Douglas Konstanz","storeAddress":{"street":"Kanzleistr.","number":"20","zipCode":"78462","city":"Konstanz"},"storeCoordinates":{"latitude":"47.6606596"}},{"storeLogo":"Douglas","storeName":"Douglas Bremen","storeAddress":{"street":"Obernstr.","number":"38-42","zipCode":"28195","city":"Bremen"},"storeCoordinates":{"latitude":"53.0772428"}},{"storeLogo":"Douglas","storeName":"Douglas Kiel","storeAddress":{"street":"Holstenstr.","number":"13-15","zipCode":"24103","city":"Kiel"},"storeCoordinates":{"latitude":"54.3224329"}},{"storeLogo":"Douglas","storeName":"Douglas Hamburg","storeAddress":{"street":"Billstedter Platz","number":"0","zipCode":"22111","city":"Hamburg"},"storeCoordinates":{"latitude":"53.54217999999999"}},{"storeLogo":"Douglas","storeName":"Douglas Heilbronn","storeAddress":{"street":"Deutschhofstraße","number":"33","zipCode":"74072","city":"Heilbronn"},"storeCoordinates":{"latitude":"49.1410051"}},{"storeLogo":"Douglas","storeName":"Douglas Öhringen","storeAddress":{"street":"Poststraße","number":"48","zipCode":"74613","city":"Öhringen"},"storeCoordinates":{"latitude":"49.20101"}},{"storeLogo":"Douglas","storeName":"Douglas Wiesbaden","storeAddress":{"street":"Kirchgasse","number":"42-44","zipCode":"65185","city":"Wiesbaden"},"storeCoordinates":{"latitude":"50.08087889999999"}},{"storeLogo":"Douglas","storeName":"Douglas Flensburg","storeAddress":{"street":"Holm","number":"48-52","zipCode":"24937","city":"Flensburg"},"storeCoordinates":{"latitude":"54.7846405"}},{"storeLogo":"Douglas","storeName":"Douglas Schwäbisch Hall","storeAddress":{"street":"Dietrich-Bonhoeffer-Platz","number":"2","zipCode":"74523","city":"Schwäbisch Hall"},"storeCoordinates":{"latitude":"49.1147086"}},{"storeLogo":"Douglas","storeName":"Douglas Lüneburg","storeAddress":{"street":"Große Bäckerstr.","number":"22","zipCode":"21335","city":"Lüneburg"},"storeCoordinates":{"latitude":"53.2489599"}},{"storeLogo":"Douglas","storeName":"Douglas Düsseldorf","storeAddress":{"street":"Königsallee","number":"46","zipCode":"40212","city":"Düsseldorf"},"storeCoordinates":{"latitude":"51.2235325"}},{"storeLogo":"Douglas","storeName":"Douglas Hamburg","storeAddress":{"street":"Waitzstr.","number":"15","zipCode":"22607","city":"Hamburg"},"storeCoordinates":{"latitude":"53.5593653"}},{"storeLogo":"Douglas","storeName":"Douglas Plauen","storeAddress":{"street":"Postplatz","number":"1","zipCode":"08523","city":"Plauen"},"storeCoordinates":{"latitude":"50.4960265"}},{"storeLogo":"Douglas","storeName":"Douglas Duisburg","storeAddress":{"street":"Königstr.","number":"48","zipCode":"47051","city":"Duisburg"},"storeCoordinates":{"latitude":"51.4320596"}},{"storeLogo":"Douglas","storeName":"Douglas Aschaffenburg","storeAddress":{"street":"Herstallstr.","number":"25","zipCode":"63739","city":"Aschaffenburg"},"storeCoordinates":{"latitude":"49.9756833"}},{"storeLogo":"Douglas","storeName":"Douglas Reutlingen","storeAddress":{"street":"Wilhelmstr.","number":"34","zipCode":"72764","city":"Reutlingen"},"storeCoordinates":{"latitude":"48.49293"}},{"storeLogo":"Douglas","storeName":"Douglas Hannover","storeAddress":{"street":"Karmarschstr.","number":"26","zipCode":"30159","city":"Hannover"},"storeCoordinates":{"latitude":"52.3731989"}},{"storeLogo":"Douglas","storeName":"Douglas Dortmund","storeAddress":{"street":"Westenhellweg","number":"9","zipCode":"44137","city":"Dortmund"},"storeCoordinates":{"latitude":"51.51438779999999"}},{"storeLogo":"Douglas","storeName":"Douglas Hamburg","storeAddress":{"street":"Quarree","number":"8-10","zipCode":"22041","city":"Hamburg"},"storeCoordinates":{"latitude":"53.5723365"}},{"storeLogo":"Douglas","storeName":"Douglas Bünde","storeAddress":{"street":"Eschstraße","number":"31","zipCode":"32257","city":"Bünde"},"storeCoordinates":{"latitude":"52.1984679"}},{"storeLogo":"Douglas","storeName":"Douglas Düsseldorf","storeAddress":{"street":"Nordstr.","number":"48","zipCode":"40477","city":"Düsseldorf"},"storeCoordinates":{"latitude":"51.2379834"}},{"storeLogo":"Douglas","storeName":"Douglas Öhringen","storeAddress":{"street":"Austraße","number":"5","zipCode":"74613","city":"Öhringen"},"storeCoordinates":{"latitude":"49.2052899"}},{"storeLogo":"Douglas","storeName":"Douglas Flensburg","storeAddress":{"street":"Langberger Weg","number":"4","zipCode":"24941","city":"Flensburg"},"storeCoordinates":{"latitude":"54.7738628"}},{"storeLogo":"Douglas","storeName":"Douglas Speyer","storeAddress":{"street":"Maximilianstr.","number":"33","zipCode":"67346","city":"Speyer"},"storeCoordinates":{"latitude":"49.3171932"}},{"storeLogo":"Douglas","storeName":"Douglas Norderstedt","storeAddress":{"street":"Berliner Allee","number":"42","zipCode":"22850","city":"Norderstedt"},"storeCoordinates":{"latitude":"53.6853941"}},{"storeLogo":"Douglas","storeName":"Douglas Baunatal","storeAddress":{"street":"Fuldastrasse","number":"1-5","zipCode":"34225","city":"Baunatal"},"storeCoordinates":{"latitude":"51.2281321"}},{"storeLogo":"Douglas","storeName":"Douglas Oldenburg","storeAddress":{"street":"Achternstr.","number":"44-45","zipCode":"26122","city":"Oldenburg"},"storeCoordinates":{"latitude":"53.14019"}},{"storeLogo":"Douglas","storeName":"Douglas Köln","storeAddress":{"street":"Maternusplatz","number":"5","zipCode":"50996","city":"Köln"},"storeCoordinates":{"latitude":"50.8924885"}},{"storeLogo":"Douglas","storeName":"Douglas Euskirchen","storeAddress":{"street":"Neustr.","number":"31","zipCode":"53879","city":"Euskirchen"},"storeCoordinates":{"latitude":"50.6606727"}},{"storeLogo":"Douglas","storeName":"Douglas Frankfurt","storeAddress":{"street":"Zeil","number":"98-102","zipCode":"60313","city":"Frankfurt"},"storeCoordinates":{"latitude":"50.114714"}},{"storeLogo":"Douglas","storeName":"Douglas Bruchsal","storeAddress":{"street":"Kaiserstr.","number":"54","zipCode":"76646","city":"Bruchsal"},"storeCoordinates":{"latitude":"49.1246748"}},{"storeLogo":"Douglas","storeName":"Douglas München","storeAddress":{"street":"Hanauer Straße","number":"68","zipCode":"80993","city":"München"},"storeCoordinates":{"latitude":"48.1834097"}},{"storeLogo":"Douglas","storeName":"Douglas Dresden","storeAddress":{"street":"Dohnaer Straße","number":"246","zipCode":"01239","city":"Dresden"},"storeCoordinates":{"latitude":"50.9972"}},{"storeLogo":"Douglas","storeName":"Douglas Aschaffenburg","storeAddress":{"street":"Goldbacher Str.","number":"2","zipCode":"63739","city":"Aschaffenburg"},"storeCoordinates":{"latitude":"49.9778108"}},{"storeLogo":"Douglas","storeName":"Douglas Frankfurt","storeAddress":{"street":"Große Bockenheimerstr.","number":"21","zipCode":"60313","city":"Frankfurt"},"storeCoordinates":{"latitude":"50.1142652"}},{"storeLogo":"Douglas","storeName":"Douglas Gießen","storeAddress":{"street":"Seltersweg","number":"54","zipCode":"35390","city":"Gießen"},"storeCoordinates":{"latitude":"50.5832801"}},{"storeLogo":"Douglas","storeName":"Douglas Bielefeld","storeAddress":{"street":"Bahnhofstr.","number":"14","zipCode":"33602","city":"Bielefeld"},"storeCoordinates":{"latitude":"52.0249292"}},{"storeLogo":"Douglas","storeName":"Douglas Amberg","storeAddress":{"street":"Bahnhofstr.","number":"20","zipCode":"92224","city":"Amberg"},"storeCoordinates":{"latitude":"49.4463359"}},{"storeLogo":"Douglas","storeName":"Douglas Würzburg","storeAddress":{"street":"Schustergasse","number":"9","zipCode":"97070","city":"Würzburg"},"storeCoordinates":{"latitude":"49.7938996"}},{"storeLogo":"Douglas","storeName":"Douglas Koblenz","storeAddress":{"street":"Hohenfelder Straße","number":"22","zipCode":"56068","city":"Koblenz"},"storeCoordinates":{"latitude":"50.3590519"}},{"storeLogo":"Douglas","storeName":"Douglas Hamburg","storeAddress":{"street":"Osterstr.","number":"122","zipCode":"20255","city":"Hamburg"},"storeCoordinates":{"latitude":"53.5763702"}},{"storeLogo":"Douglas","storeName":"Douglas Kassel","storeAddress":{"street":"Obere Königstraße","number":"45a","zipCode":"34117","city":"Kassel"},"storeCoordinates":{"latitude":"51.3149046"}},{"storeLogo":"Douglas","storeName":"Douglas Düsseldorf","storeAddress":{"street":"Königsallee","number":"56","zipCode":"40212","city":"Düsseldorf"},"storeCoordinates":{"latitude":"51.2225848"}},{"storeLogo":"Douglas","storeName":"Douglas Essen","storeAddress":{"street":"Limbecker Platz","number":"1a","zipCode":"45127","city":"Essen"},"storeCoordinates":{"latitude":"51.4582152"}},{"storeLogo":"Douglas","storeName":"Douglas Schleswig","storeAddress":{"street":"Stadtweg","number":"25","zipCode":"24837","city":"Schleswig"},"storeCoordinates":{"latitude":"54.51640459999999"}},{"storeLogo":"Douglas","storeName":"Douglas Velbert","storeAddress":{"street":"Friedrichstr.","number":"151","zipCode":"42551","city":"Velbert"},"storeCoordinates":{"latitude":"51.3400978"}},{"storeLogo":"Douglas","storeName":"Douglas Itzehoe","storeAddress":{"street":"Feldschmiede","number":"18","zipCode":"25524","city":"Itzehoe"},"storeCoordinates":{"latitude":"53.9243062"}},{"storeLogo":"Douglas","storeName":"Douglas Kaiserslautern","storeAddress":{"street":"Fackelrondell","number":"1","zipCode":"67655","city":"Kaiserslautern"},"storeCoordinates":{"latitude":"49.444081"}},{"storeLogo":"Douglas","storeName":"Douglas Siegburg","storeAddress":{"street":"Markt","number":"22","zipCode":"53721","city":"Siegburg"},"storeCoordinates":{"latitude":"50.7976036"}},{"storeLogo":"Douglas","storeName":"Douglas Bremen","storeAddress":{"street":"Gerhard-Rohlfs-Str.","number":"3-6","zipCode":"28757","city":"Bremen"},"storeCoordinates":{"latitude":"53.17201"}},{"storeLogo":"Douglas","storeName":"Douglas Kitzingen","storeAddress":{"street":"Marktstraße","number":"42-44","zipCode":"97318","city":"Kitzingen"},"storeCoordinates":{"latitude":"49.73866"}},{"storeLogo":"Douglas","storeName":"Douglas Augsburg","storeAddress":{"street":"Moritzplatz","number":"7","zipCode":"86150","city":"Augsburg"},"storeCoordinates":{"latitude":"48.3665962"}},{"storeLogo":"Douglas","storeName":"Douglas Bielefeld","storeAddress":{"street":"Niedernstr.","number":"24","zipCode":"33602","city":"Bielefeld"},"storeCoordinates":{"latitude":"52.02218329999999"}},{"storeLogo":"Douglas","storeName":"Douglas Soest","storeAddress":{"street":"Brüderstr.","number":"8","zipCode":"59494","city":"Soest"},"storeCoordinates":{"latitude":"51.57327"}},{"storeLogo":"Douglas","storeName":"Douglas Heilbronn","storeAddress":{"street":"Deutschhofstraße","number":"19","zipCode":"74072","city":"Heilbronn"},"storeCoordinates":{"latitude":"49.1404253"}},{"storeLogo":"Douglas","storeName":"Douglas Miltenberg","storeAddress":{"street":"Hauptstraße","number":"110","zipCode":"63897","city":"Miltenberg"},"storeCoordinates":{"latitude":"49.6999358"}},{"storeLogo":"Douglas","storeName":"Douglas Weiterstadt","storeAddress":{"street":"Gutenbergstraße","number":"5","zipCode":"64331","city":"Weiterstadt"},"storeCoordinates":{"latitude":"49.8911004"}},{"storeLogo":"Douglas","storeName":"Douglas Aachen","storeAddress":{"street":"Adalbertstr.","number":"100","zipCode":"52062","city":"Aachen"},"storeCoordinates":{"latitude":"50.7748455"}},{"storeLogo":"Douglas","storeName":"Douglas Bonn","storeAddress":{"street":"Theaterplatz","number":"18","zipCode":"53177","city":"Bonn"},"storeCoordinates":{"latitude":"50.68389"}},{"storeLogo":"Douglas","storeName":"Douglas Crailsheim","storeAddress":{"street":"Wilhelmstraße","number":"11","zipCode":"74564","city":"Crailsheim"},"storeCoordinates":{"latitude":"49.13777"}},{"storeLogo":"Douglas","storeName":"Douglas Oldenburg","storeAddress":{"street":"Schlosshöfe/Schlossplatz","number":"3","zipCode":"26122","city":"Oldenburg"},"storeCoordinates":{"latitude":"53.1388601"}},{"storeLogo":"Douglas","storeName":"Douglas Kiel","storeAddress":{"street":"Sophienblatt","number":"20","zipCode":"24103","city":"Kiel"},"storeCoordinates":{"latitude":"54.3166162"}},{"storeLogo":"Douglas","storeName":"Douglas Hamburg","storeAddress":{"street":"Schweriner Str.","number":"8-12","zipCode":"22143","city":"Hamburg"},"storeCoordinates":{"latitude":"53.6049495"}},{"storeLogo":"Douglas","storeName":"Douglas Bremen","storeAddress":{"street":"Alter Dorfweg","number":"30","zipCode":"28259","city":"Bremen"},"storeCoordinates":{"latitude":"53.0484167"}},{"storeLogo":"Douglas","storeName":"Douglas Herford","storeAddress":{"street":"Gehrenberg","number":"14","zipCode":"32052","city":"Herford"},"storeCoordinates":{"latitude":"52.11484"}},{"storeLogo":"Douglas","storeName":"Douglas Gütersloh","storeAddress":{"street":"Berliner Str.","number":"26-28","zipCode":"33330","city":"Gütersloh"},"storeCoordinates":{"latitude":"51.90646020000001"}},{"storeLogo":"Douglas","storeName":"Douglas Hannover","storeAddress":{"street":"Ernst-August-Platz (HBF)","number":"1","zipCode":"30159","city":"Hannover"},"storeCoordinates":{"latitude":"52.3761416"}},{"storeLogo":"Douglas","storeName":"Douglas Ahrensburg","storeAddress":{"street":"Hamburger Str.","number":"6-8","zipCode":"22926","city":"Ahrensburg"},"storeCoordinates":{"latitude":"53.67299509999999"}},{"storeLogo":"Douglas","storeName":"Douglas Rastatt","storeAddress":{"street":"Poststraße","number":"7","zipCode":"76437","city":"Rastatt"},"storeCoordinates":{"latitude":"48.857304"}},{"storeLogo":"Douglas","storeName":"Douglas Moers","storeAddress":{"street":"Steinstr.","number":"19-21","zipCode":"47441","city":"Moers"},"storeCoordinates":{"latitude":"51.4512053"}},{"storeLogo":"Douglas","storeName":"Douglas Passau","storeAddress":{"street":"Bahnhofstr.","number":"1","zipCode":"94032","city":"Passau"},"storeCoordinates":{"latitude":"48.5736758"}},{"storeLogo":"Douglas","storeName":"Douglas Timmendorfer Strand","storeAddress":{"street":"Kurpromenade","number":"18","zipCode":"23669","city":"Timmendorfer Strand"},"storeCoordinates":{"latitude":"53.99847"}},{"storeLogo":"Douglas","storeName":"Douglas Neuwied","storeAddress":{"street":"Mittelstr.","number":"33","zipCode":"56564","city":"Neuwied"},"storeCoordinates":{"latitude":"50.42873710000001"}},{"storeLogo":"Douglas","storeName":"Douglas Siegen","storeAddress":{"street":"Bahnhofstr.","number":"15","zipCode":"57072","city":"Siegen"},"storeCoordinates":{"latitude":"50.8748539"}},{"storeLogo":"Douglas","storeName":"Douglas Tauberbischofsheim","storeAddress":{"street":"Marktplatz","number":"1","zipCode":"97941","city":"Tauberbischofsheim"},"storeCoordinates":{"latitude":"49.6225809"}},{"storeLogo":"Douglas","storeName":"Douglas Wertheim","storeAddress":{"street":"Marktplatz","number":"03+05","zipCode":"97877","city":"Wertheim"},"storeCoordinates":{"latitude":"49.75989"}},{"storeLogo":"Douglas","storeName":"Douglas Kiel","storeAddress":{"street":"Mühlendamm","number":"1","zipCode":"24113","city":"Kiel"},"storeCoordinates":{"latitude":"54.3136397"}},{"storeLogo":"Douglas","storeName":"Douglas Fulda","storeAddress":{"street":"Marktstraße","number":"13","zipCode":"36037","city":"Fulda"},"storeCoordinates":{"latitude":"50.5510712"}},{"storeLogo":"Douglas","storeName":"Douglas Paderborn","storeAddress":{"street":"Rathausplatz","number":"17","zipCode":"33098","city":"Paderborn"},"storeCoordinates":{"latitude":"51.7171266"}},{"storeLogo":"Douglas","storeName":"Douglas Köln","storeAddress":{"street":"Neusser Str.","number":"252","zipCode":"50733","city":"Köln"},"storeCoordinates":{"latitude":"50.963597"}},{"storeLogo":"Douglas","storeName":"Douglas Remscheid","storeAddress":{"street":"Alleestr.","number":"74","zipCode":"42853","city":"Remscheid"},"storeCoordinates":{"latitude":"51.1829715"}},{"storeLogo":"Douglas","storeName":"Douglas Wernigerode","storeAddress":{"street":"Breite Str.","number":"20","zipCode":"38855","city":"Wernigerode"},"storeCoordinates":{"latitude":"51.8340738"}},{"storeLogo":"Douglas","storeName":"Douglas Hünfeld","storeAddress":{"street":"Hauptstraße","number":"20","zipCode":"36088","city":"Hünfeld"},"storeCoordinates":{"latitude":"50.67392840000001"}},{"storeLogo":"Douglas","storeName":"Douglas Regensburg","storeAddress":{"street":"Weichser Weg","number":"5","zipCode":"93059","city":"Regensburg"},"storeCoordinates":{"latitude":"49.026573"}},{"storeLogo":"Douglas","storeName":"Douglas Kampen","storeAddress":{"street":"Hauptstr.","number":"13","zipCode":"25999","city":"Kampen"},"storeCoordinates":{"latitude":"54.9552755"}},{"storeLogo":"Douglas","storeName":"Douglas Solingen","storeAddress":{"street":"Kölner Straße","number":"99","zipCode":"42651","city":"Solingen"},"storeCoordinates":{"latitude":"51.1713051"}},{"storeLogo":"Douglas","storeName":"Douglas Wolfenbüttel","storeAddress":{"street":"Lange Herzogstr.","number":"62","zipCode":"38300","city":"Wolfenbüttel"},"storeCoordinates":{"latitude":"52.1634685"}},{"storeLogo":"Douglas","storeName":"Douglas Frankfurt","storeAddress":{"street":"Leipziger Straße","number":"23","zipCode":"60487","city":"Frankfurt"},"storeCoordinates":{"latitude":"50.1213766"}},{"storeLogo":"Douglas","storeName":"Douglas Lauterbach","storeAddress":{"street":"Eisenbacher Tor","number":"7","zipCode":"36341","city":"Lauterbach"},"storeCoordinates":{"latitude":"50.6359753"}},{"storeLogo":"Douglas","storeName":"Douglas Hannover","storeAddress":{"street":"Georgstr.","number":"18","zipCode":"30159","city":"Hannover"},"storeCoordinates":{"latitude":"52.37469489999999"}},{"storeLogo":"Douglas","storeName":"Douglas Ludwigshafen","storeAddress":{"street":"Im Zollhof","number":"4","zipCode":"67061","city":"Ludwigshafen"},"storeCoordinates":{"latitude":"49.48613539999999"}},{"storeLogo":"Douglas","storeName":"Douglas Heide","storeAddress":{"street":"Friedrichstr.","number":"11","zipCode":"25746","city":"Heide"},"storeCoordinates":{"latitude":"54.19483169999999"}},{"storeLogo":"Douglas","storeName":"Douglas Wolfsburg","storeAddress":{"street":"Porschestr.","number":"45","zipCode":"38440","city":"Wolfsburg"},"storeCoordinates":{"latitude":"52.4221485"}},{"storeLogo":"Douglas","storeName":"Douglas Erlangen","storeAddress":{"street":"Nürnberger Str.","number":"7","zipCode":"91052","city":"Erlangen"},"storeCoordinates":{"latitude":"49.593183"}},{"storeLogo":"Douglas","storeName":"Douglas Köln","storeAddress":{"street":"Sülzburgstr.","number":"37","zipCode":"50937","city":"Köln"},"storeCoordinates":{"latitude":"50.9175731"}},{"storeLogo":"Douglas","storeName":"Douglas Neunkirchen","storeAddress":{"street":"Stummplatz","number":"1","zipCode":"66538","city":"Neunkirchen"},"storeCoordinates":{"latitude":"49.34744209999999"}},{"storeLogo":"Douglas","storeName":"Douglas Hamburg","storeAddress":{"street":"Hannoversche Straße","number":"86","zipCode":"21079","city":"Hamburg"},"storeCoordinates":{"latitude":"53.4565065"}},{"storeLogo":"Douglas","storeName":"Douglas Husum","storeAddress":{"street":"Krämerstr.","number":"16","zipCode":"25813","city":"Husum"},"storeCoordinates":{"latitude":"54.4764042"}},{"storeLogo":"Douglas","storeName":"Douglas Essen","storeAddress":{"street":"Altenessener Str.","number":"411","zipCode":"45329","city":"Essen"},"storeCoordinates":{"latitude":"51.4965634"}},{"storeLogo":"Douglas","storeName":"Douglas Montabaur","storeAddress":{"street":"Grosser Markt","number":"21","zipCode":"56410","city":"Montabaur"},"storeCoordinates":{"latitude":"50.4363717"}},{"storeLogo":"Douglas","storeName":"Douglas Limburg","storeAddress":{"street":"Neumarkt","number":"3-5","zipCode":"65549","city":"Limburg"},"storeCoordinates":{"latitude":"50.38626989999999"}},{"storeLogo":"Douglas","storeName":"Douglas Lippstadt","storeAddress":{"street":"Lange Str.","number":"59","zipCode":"59555","city":"Lippstadt"},"storeCoordinates":{"latitude":"51.67305210000001"}},{"storeLogo":"Douglas","storeName":"Douglas Fürth","storeAddress":{"street":"Fürther Freiheit","number":"8-10","zipCode":"90762","city":"Fürth"},"storeCoordinates":{"latitude":"49.4721091"}},{"storeLogo":"Douglas","storeName":"Douglas Weinheim","storeAddress":{"street":"Bahnhofstr.","number":"1","zipCode":"69469","city":"Weinheim"},"storeCoordinates":{"latitude":"49.5500161"}},{"storeLogo":"Douglas","storeName":"Douglas Ulm","storeAddress":{"street":"Hirschstr.","number":"9","zipCode":"89073","city":"Ulm"},"storeCoordinates":{"latitude":"48.398005"}},{"storeLogo":"Douglas","storeName":"Douglas Bad Pyrmont","storeAddress":{"street":"Brunnenstr.","number":"46a","zipCode":"31812","city":"Bad Pyrmont"},"storeCoordinates":{"latitude":"51.9859877"}},{"storeLogo":"Douglas","storeName":"Douglas Ingolstadt","storeAddress":{"street":"Am Westpark","number":"6","zipCode":"85057","city":"Ingolstadt"},"storeCoordinates":{"latitude":"48.7741962"}},{"storeLogo":"Douglas","storeName":"Douglas Rendsburg","storeAddress":{"street":"Hohe Str.","number":"28","zipCode":"24768","city":"Rendsburg"},"storeCoordinates":{"latitude":"54.3048647"}},{"storeLogo":"Douglas","storeName":"Douglas Augsburg","storeAddress":{"street":"Willy-Brandt-Platz","number":"1","zipCode":"86153","city":"Augsburg"},"storeCoordinates":{"latitude":"48.36551"}},{"storeLogo":"Douglas","storeName":"Douglas Heilbronn","storeAddress":{"street":"Kaiserstraße","number":"21-23","zipCode":"74072","city":"Heilbronn"},"storeCoordinates":{"latitude":"49.14202"}},{"storeLogo":"Douglas","storeName":"Douglas Verden","storeAddress":{"street":"Grosse Str.","number":"83","zipCode":"27283","city":"Verden"},"storeCoordinates":{"latitude":"52.9201349"}},{"storeLogo":"Douglas","storeName":"Douglas Lübeck","storeAddress":{"street":"Herrenholz","number":"14","zipCode":"23556","city":"Lübeck"},"storeCoordinates":{"latitude":"53.8578249"}},{"storeLogo":"Douglas","storeName":"Douglas Flensburg","storeAddress":{"street":"Schleswiger Straße","number":"130","zipCode":"24941","city":"Flensburg"},"storeCoordinates":{"latitude":"54.7601473"}},{"storeLogo":"Douglas","storeName":"Douglas Greifswald","storeAddress":{"street":"Lange Straße","number":"70","zipCode":"17489","city":"Greifswald"},"storeCoordinates":{"latitude":"54.09619559999999"}},{"storeLogo":"Douglas","storeName":"Douglas München","storeAddress":{"street":"Thomas-Dehler-Str.","number":"10","zipCode":"81737","city":"München"},"storeCoordinates":{"latitude":"48.1014294"}},{"storeLogo":"Douglas","storeName":"Douglas Pinneberg","storeAddress":{"street":"Friedrich-Ebert-Str.","number":"31","zipCode":"25421","city":"Pinneberg"},"storeCoordinates":{"latitude":"53.6623573"}},{"storeLogo":"Douglas","storeName":"Douglas München","storeAddress":{"street":"Neuhauser Str.","number":"3","zipCode":"80331","city":"München"},"storeCoordinates":{"latitude":"48.138063"}},{"storeLogo":"Douglas","storeName":"Douglas Kassel","storeAddress":{"street":"Königsplatz","number":"6","zipCode":"34117","city":"Kassel"},"storeCoordinates":{"latitude":"51.3166461"}},{"storeLogo":"Douglas","storeName":"Douglas Bremen","storeAddress":{"street":"Hans-Bredow-Str.","number":"19","zipCode":"28307","city":"Bremen"},"storeCoordinates":{"latitude":"53.0498391"}},{"storeLogo":"Douglas","storeName":"Douglas Trier","storeAddress":{"street":"Grabenstr.","number":"4-6","zipCode":"54290","city":"Trier"},"storeCoordinates":{"latitude":"49.756256"}},{"storeLogo":"Douglas","storeName":"Douglas Konstanz","storeAddress":{"street":"Bodanstraße","number":"1","zipCode":"78462","city":"Konstanz"},"storeCoordinates":{"latitude":"47.6569379"}},{"storeLogo":"Douglas","storeName":"Douglas Buxtehude","storeAddress":{"street":"Lange Str.","number":"39-45","zipCode":"21614","city":"Buxtehude"},"storeCoordinates":{"latitude":"53.4754607"}},{"storeLogo":"Douglas","storeName":"Douglas Andernach","storeAddress":{"street":"Markt","number":"1","zipCode":"56626","city":"Andernach"},"storeCoordinates":{"latitude":"50.4388716"}},{"storeLogo":"Douglas","storeName":"Douglas Leverkusen","storeAddress":{"street":"Friedrich-Ebert-Platz","number":"2","zipCode":"51373","city":"Leverkusen"},"storeCoordinates":{"latitude":"51.0330318"}},{"storeLogo":"Douglas","storeName":"Douglas Helmstedt","storeAddress":{"street":"Neumärker Str.","number":"0","zipCode":"38350","city":"Helmstedt"},"storeCoordinates":{"latitude":"52.227919"}},{"storeLogo":"Douglas","storeName":"Douglas Hanau","storeAddress":{"street":"Hammerstr.","number":"11","zipCode":"63450","city":"Hanau"},"storeCoordinates":{"latitude":"50.1343201"}},{"storeLogo":"Douglas","storeName":"Douglas Celle","storeAddress":{"street":"Zöllnerstr.","number":"1","zipCode":"29221","city":"Celle"},"storeCoordinates":{"latitude":"52.6243932"}},{"storeLogo":"Douglas","storeName":"Douglas Bitburg","storeAddress":{"street":"Hauptstr.","number":"4","zipCode":"54634","city":"Bitburg"},"storeCoordinates":{"latitude":"49.97208"}},{"storeLogo":"Douglas","storeName":"Douglas Bad Kreuznach","storeAddress":{"street":"Mannheimer Str.","number":"146","zipCode":"55543","city":"Bad Kreuznach"},"storeCoordinates":{"latitude":"49.8427971"}},{"storeLogo":"Douglas","storeName":"Douglas Deggendorf","storeAddress":{"street":"Luitpoldplatz","number":"1","zipCode":"94469","city":"Deggendorf"},"storeCoordinates":{"latitude":"48.83340990000001"}},{"storeLogo":"Douglas","storeName":"Douglas Hürth","storeAddress":{"street":"Theresienhöhe","number":"4","zipCode":"50354","city":"Hürth"},"storeCoordinates":{"latitude":"50.8792382"}},{"storeLogo":"Douglas","storeName":"Douglas Köln","storeAddress":{"street":"Aachener Str.","number":"1253","zipCode":"50858","city":"Köln"},"storeCoordinates":{"latitude":"50.9374641"}},{"storeLogo":"Douglas","storeName":"Douglas Michelstadt","storeAddress":{"street":"Braunstraße","number":"6","zipCode":"64720","city":"Michelstadt"},"storeCoordinates":{"latitude":"49.6782718"}},{"storeLogo":"Douglas","storeName":"Douglas Sievershagen","storeAddress":{"street":"Ostsee-Park-Str.","number":"3","zipCode":"18069","city":"Sievershagen"},"storeCoordinates":{"latitude":"54.10691869999999"}},{"storeLogo":"Douglas","storeName":"Douglas Heilbronn","storeAddress":{"street":"Fleiner Str.","number":"25-27","zipCode":"74072","city":"Heilbronn"},"storeCoordinates":{"latitude":"49.1407318"}},{"storeLogo":"Douglas","storeName":"Douglas Schenefeld","storeAddress":{"street":"Kiebitzweg","number":"2","zipCode":"22869","city":"Schenefeld"},"storeCoordinates":{"latitude":"53.6019641"}},{"storeLogo":"Douglas","storeName":"Douglas Gifhorn","storeAddress":{"street":"Steinweg","number":"45","zipCode":"38518","city":"Gifhorn"},"storeCoordinates":{"latitude":"52.4849533"}},{"storeLogo":"Douglas","storeName":"Douglas Höchst i. Odw.","storeAddress":{"street":"Erbacher Straße","number":"28","zipCode":"64739","city":"Höchst i. Odw."},"storeCoordinates":{"latitude":"49.7987702"}},{"storeLogo":"Douglas","storeName":"Douglas Landshut","storeAddress":{"street":"Theaterstr.","number":"55-57","zipCode":"84028","city":"Landshut"},"storeCoordinates":{"latitude":"48.53489"}},{"storeLogo":"Douglas","storeName":"Douglas Vechta","storeAddress":{"street":"Große Str.","number":"103","zipCode":"49377","city":"Vechta"},"storeCoordinates":{"latitude":"52.7301389"}},{"storeLogo":"Douglas","storeName":"Douglas Salzgitter","storeAddress":{"street":"In den Blumentriften","number":"30","zipCode":"38226","city":"Salzgitter"},"storeCoordinates":{"latitude":"52.1543305"}},{"storeLogo":"Douglas","storeName":"Douglas Offenburg","storeAddress":{"street":"Hauptstr.","number":"49","zipCode":"77652","city":"Offenburg"},"storeCoordinates":{"latitude":"48.4708561"}},{"storeLogo":"Douglas","storeName":"Douglas Frankfurt","storeAddress":{"street":"Schweizer Str.","number":"32","zipCode":"60594","city":"Frankfurt"},"storeCoordinates":{"latitude":"50.1031408"}},{"storeLogo":"Douglas","storeName":"Douglas Lüdenscheid","storeAddress":{"street":"Wilhelmstr.","number":"33","zipCode":"58511","city":"Lüdenscheid"},"storeCoordinates":{"latitude":"51.2157883"}},{"storeLogo":"Douglas","storeName":"Douglas Siegen","storeAddress":{"street":"Am Bahnhof","number":"40","zipCode":"57072","city":"Siegen"},"storeCoordinates":{"latitude":"50.8741699"}},{"storeLogo":"Douglas","storeName":"Douglas Schwerin","storeAddress":{"street":"Grabenstraße","number":"1","zipCode":"19061","city":"Schwerin"},"storeCoordinates":{"latitude":"53.5992146"}},{"storeLogo":"Douglas","storeName":"Douglas München","storeAddress":{"street":"Kaufinger Straße","number":"12","zipCode":"80331","city":"München"},"storeCoordinates":{"latitude":"48.13761539999999"}},{"storeLogo":"Douglas","storeName":"Douglas Zwickau","storeAddress":{"street":"Innere Plauensche Str.","number":"14","zipCode":"08056","city":"Zwickau"},"storeCoordinates":{"latitude":"50.71851100000001"}},{"storeLogo":"Douglas","storeName":"Douglas Dresden","storeAddress":{"street":"Seestr.","number":"2-4","zipCode":"01067","city":"Dresden"},"storeCoordinates":{"latitude":"51.04905"}},{"storeLogo":"Douglas","storeName":"Douglas Leipzig","storeAddress":{"street":"Petersstr.","number":"0","zipCode":"04109","city":"Leipzig"},"storeCoordinates":{"latitude":"51.3395813"}},{"storeLogo":"Douglas","storeName":"Douglas Leuna","storeAddress":{"street":"Nova Eventis","number":"1","zipCode":"06237","city":"Leuna"},"storeCoordinates":{"latitude":"51.3439093"}},{"storeLogo":"Douglas","storeName":"Douglas Chemnitz","storeAddress":{"street":"Ringstr.","number":"24","zipCode":"09247","city":"Chemnitz"},"storeCoordinates":{"latitude":"50.8634235"}},{"storeLogo":"Douglas","storeName":"Douglas Dresden","storeAddress":{"street":"Peschelstr.","number":"39","zipCode":"01139","city":"Dresden"},"storeCoordinates":{"latitude":"51.08347300000001"}},{"storeLogo":"Douglas","storeName":"Douglas Leipzig","storeAddress":{"street":"Paunsdorfer Allee","number":"1","zipCode":"04329","city":"Leipzig"},"storeCoordinates":{"latitude":"51.3483642"}},{"storeLogo":"Douglas","storeName":"Douglas Dessau","storeAddress":{"street":"Kavalierstr.","number":"49","zipCode":"06844","city":"Dessau"},"storeCoordinates":{"latitude":"51.8341174"}},{"storeLogo":"Douglas","storeName":"Douglas Hoyerswerda","storeAddress":{"street":"Lausitzer Platz","number":"1","zipCode":"02977","city":"Hoyerswerda"},"storeCoordinates":{"latitude":"51.438498"}},{"storeLogo":"Douglas","storeName":"Douglas Chemnitz","storeAddress":{"street":"Thomas-Mann-Platz","number":"1","zipCode":"09130","city":"Chemnitz"},"storeCoordinates":{"latitude":"50.8465875"}},{"storeLogo":"Douglas","storeName":"Douglas Hamburg","storeAddress":{"street":"Osdorfer Landstr.","number":"131","zipCode":"22609","city":"Hamburg"},"storeCoordinates":{"latitude":"53.5704053"}},{"storeLogo":"Douglas","storeName":"Douglas Kehl","storeAddress":{"street":"Hauptstr.","number":"49","zipCode":"77694","city":"Kehl"},"storeCoordinates":{"latitude":"48.5739043"}},{"storeLogo":"Douglas","storeName":"Douglas Dresden","storeAddress":{"street":"Neumarkt","number":"9","zipCode":"01067","city":"Dresden"},"storeCoordinates":{"latitude":"51.0507949"}},{"storeLogo":"Douglas","storeName":"Douglas Bergisch Gladbach","storeAddress":{"street":"Hauptstr.","number":"178","zipCode":"51465","city":"Bergisch Gladbach"},"storeCoordinates":{"latitude":"50.9912066"}},{"storeLogo":"Douglas","storeName":"Douglas Köln","storeAddress":{"street":"Ehrenstr.","number":"10-12","zipCode":"50672","city":"Köln"},"storeCoordinates":{"latitude":"50.9386075"}},{"storeLogo":"Douglas","storeName":"Douglas Kassel","storeAddress":{"street":"Obere Königstr.","number":"24","zipCode":"34117","city":"Kassel"},"storeCoordinates":{"latitude":"51.3132485"}},{"storeLogo":"Douglas","storeName":"Douglas Brühl","storeAddress":{"street":"Uhlstr.","number":"4-6","zipCode":"50321","city":"Brühl"},"storeCoordinates":{"latitude":"50.82772"}},{"storeLogo":"Douglas","storeName":"Douglas Cloppenburg","storeAddress":{"street":"Langestraße","number":"27","zipCode":"49661","city":"Cloppenburg"},"storeCoordinates":{"latitude":"52.8451619"}},{"storeLogo":"Douglas","storeName":"Douglas Mainz","storeAddress":{"street":"Gutenbergplatz","number":"9-11","zipCode":"55116","city":"Mainz"},"storeCoordinates":{"latitude":"49.9993336"}},{"storeLogo":"Douglas","storeName":"Douglas Schweinfurt","storeAddress":{"street":"Kesslergasse","number":"9","zipCode":"97421","city":"Schweinfurt"},"storeCoordinates":{"latitude":"50.0445778"}},{"storeLogo":"Douglas","storeName":"Douglas Mainz","storeAddress":{"street":"Schusterstr.","number":"17","zipCode":"55116","city":"Mainz"},"storeCoordinates":{"latitude":"50.00010880000001"}},{"storeLogo":"Douglas","storeName":"Douglas Lemgo","storeAddress":{"street":"Mittelstr.","number":"80","zipCode":"32657","city":"Lemgo"},"storeCoordinates":{"latitude":"52.0286303"}},{"storeLogo":"Douglas","storeName":"Douglas Bad Hersfeld","storeAddress":{"street":"Weinstr.","number":"1","zipCode":"36251","city":"Bad Hersfeld"},"storeCoordinates":{"latitude":"50.8677174"}},{"storeLogo":"Douglas","storeName":"Douglas Mosbach","storeAddress":{"street":"Hauptstraße","number":"47","zipCode":"74821","city":"Mosbach"},"storeCoordinates":{"latitude":"49.35293069999999"}},{"storeLogo":"Douglas","storeName":"Douglas Straubing","storeAddress":{"street":"Theresienplatz","number":"11","zipCode":"94315","city":"Straubing"},"storeCoordinates":{"latitude":"48.8814556"}},{"storeLogo":"Douglas","storeName":"Douglas Dresden","storeAddress":{"street":"Loschwitzer Str.","number":"52","zipCode":"01309","city":"Dresden"},"storeCoordinates":{"latitude":"51.0520815"}},{"storeLogo":"Douglas","storeName":"Douglas Saarlouis","storeAddress":{"street":"Französische Str.","number":"11-13","zipCode":"66740","city":"Saarlouis"},"storeCoordinates":{"latitude":"49.3148077"}},{"storeLogo":"Douglas","storeName":"Douglas Ansbach","storeAddress":{"street":"Residenzstr.","number":"2-6","zipCode":"91522","city":"Ansbach"},"storeCoordinates":{"latitude":"49.3059008"}},{"storeLogo":"Douglas","storeName":"Douglas Chemnitz","storeAddress":{"street":"Neumarkt","number":"2","zipCode":"09111","city":"Chemnitz"},"storeCoordinates":{"latitude":"50.8337235"}},{"storeLogo":"Douglas","storeName":"Douglas Neckarsulm","storeAddress":{"street":"Marktstraße","number":"15","zipCode":"74172","city":"Neckarsulm"},"storeCoordinates":{"latitude":"49.1912443"}},{"storeLogo":"Douglas","storeName":"Douglas Magdeburg","storeAddress":{"street":"Olvenstedter Graseweg","number":"37","zipCode":"39128","city":"Magdeburg"},"storeCoordinates":{"latitude":"52.1601527"}},{"storeLogo":"Douglas","storeName":"Douglas Rostock","storeAddress":{"street":"Kröpeliner Str.","number":"77","zipCode":"18055","city":"Rostock"},"storeCoordinates":{"latitude":"54.0885233"}},{"storeLogo":"Douglas","storeName":"Douglas Westerland","storeAddress":{"street":"Friedrichstraße","number":"4","zipCode":"25980","city":"Westerland"},"storeCoordinates":{"latitude":"54.9077985"}},{"storeLogo":"Douglas","storeName":"Douglas München","storeAddress":{"street":"Pasinger Bahnhofsplatz","number":"5","zipCode":"81241","city":"München"},"storeCoordinates":{"latitude":"48.14916179999999"}},{"storeLogo":"Douglas","storeName":"Douglas Ibbenbüren","storeAddress":{"street":"Unterer Markt","number":"2","zipCode":"49477","city":"Ibbenbüren"},"storeCoordinates":{"latitude":"52.2743912"}},{"storeLogo":"Douglas","storeName":"Douglas Paderborn","storeAddress":{"street":"Westernstr.","number":"20","zipCode":"33098","city":"Paderborn"},"storeCoordinates":{"latitude":"51.716669"}},{"storeLogo":"Douglas","storeName":"Douglas Oberursel","storeAddress":{"street":"Vorstadt","number":"22","zipCode":"61440","city":"Oberursel"},"storeCoordinates":{"latitude":"50.20160869999999"}},{"storeLogo":"Douglas","storeName":"Douglas Weiden","storeAddress":{"street":"Max-Reger-Str.","number":"9","zipCode":"92637","city":"Weiden"},"storeCoordinates":{"latitude":"49.67452480000001"}},{"storeLogo":"Douglas","storeName":"Douglas Westerland","storeAddress":{"street":"Friedrichstraße","number":"29-31","zipCode":"25980","city":"Westerland"},"storeCoordinates":{"latitude":"54.90753489999999"}},{"storeLogo":"Douglas","storeName":"Douglas Hamburg","storeAddress":{"street":"Tibarg","number":"41","zipCode":"22459","city":"Hamburg"},"storeCoordinates":{"latitude":"53.62287389999999"}},{"storeLogo":"Douglas","storeName":"Douglas Hamburg","storeAddress":{"street":"Claus-Ferck-Str.","number":"6","zipCode":"22359","city":"Hamburg"},"storeCoordinates":{"latitude":"53.6492186"}},{"storeLogo":"Douglas","storeName":"Douglas Hamburg","storeAddress":{"street":"Mühlenkamp","number":"39","zipCode":"22303","city":"Hamburg"},"storeCoordinates":{"latitude":"53.58195509999999"}},{"storeLogo":"Douglas","storeName":"Douglas Dresden","storeAddress":{"street":"Webergasse","number":"1","zipCode":"01067","city":"Dresden"},"storeCoordinates":{"latitude":"51.0481586"}},{"storeLogo":"Douglas","storeName":"Douglas Stralsund","storeAddress":{"street":"Grünhufer Bogen","number":"11-17","zipCode":"18437","city":"Stralsund"},"storeCoordinates":{"latitude":"54.3193693"}},{"storeLogo":"Douglas","storeName":"Douglas Düsseldorf","storeAddress":{"street":"Flinger Str.","number":"33-35","zipCode":"40213","city":"Düsseldorf"},"storeCoordinates":{"latitude":"51.22524809999999"}},{"storeLogo":"Douglas","storeName":"Douglas Köln","storeAddress":{"street":"Mailänder Passage","number":"1","zipCode":"50765","city":"Köln"},"storeCoordinates":{"latitude":"51.02114"}},{"storeLogo":"Douglas","storeName":"Douglas Hamburg","storeAddress":{"street":"Ottenser Hauptstr.","number":"10","zipCode":"22765","city":"Hamburg"},"storeCoordinates":{"latitude":"53.5525444"}},{"storeLogo":"Douglas","storeName":"Douglas Regensburg","storeAddress":{"street":"Neupfarrplatz","number":"12","zipCode":"93047","city":"Regensburg"},"storeCoordinates":{"latitude":"49.0180095"}},{"storeLogo":"Douglas","storeName":"Douglas Dresden","storeAddress":{"street":"Prager Str.","number":"8","zipCode":"01069","city":"Dresden"},"storeCoordinates":{"latitude":"51.0454287"}},{"storeLogo":"Douglas","storeName":"Douglas Darmstadt","storeAddress":{"street":"Schuchardstr.","number":"11-13","zipCode":"64283","city":"Darmstadt"},"storeCoordinates":{"latitude":"49.8716809"}},{"storeLogo":"Douglas","storeName":"Douglas Kassel","storeAddress":{"street":"Frankfurter Str.","number":"225","zipCode":"34134","city":"Kassel"},"storeCoordinates":{"latitude":"51.287149"}},{"storeLogo":"Douglas","storeName":"Douglas Laatzen","storeAddress":{"street":"Marktplatz","number":"11","zipCode":"30880","city":"Laatzen"},"storeCoordinates":{"latitude":"52.3081341"}},{"storeLogo":"Douglas","storeName":"Douglas Leipzig","storeAddress":{"street":"Ludwigsburger Str.","number":"9","zipCode":"04209","city":"Leipzig"},"storeCoordinates":{"latitude":"51.32045429999999"}},{"storeLogo":"Douglas","storeName":"Douglas Gummersbach","storeAddress":{"street":"Kaiserstr.","number":"1","zipCode":"51643","city":"Gummersbach"},"storeCoordinates":{"latitude":"51.0260226"}},{"storeLogo":"Douglas","storeName":"Douglas Bayreuth","storeAddress":{"street":"Hohenzollernring","number":"58","zipCode":"95444","city":"Bayreuth"},"storeCoordinates":{"latitude":"49.9454597"}},{"storeLogo":"Douglas","storeName":"Douglas Nürnberg","storeAddress":{"street":"Karolinenstr. 25/Brunneng","number":"20","zipCode":"90402","city":"Nürnberg"},"storeCoordinates":{"latitude":"49.4504931"}},{"storeLogo":"Douglas","storeName":"Douglas Köln","storeAddress":{"street":"Colonaden HBF/Trankgasse","number":"11","zipCode":"50667","city":"Köln"},"storeCoordinates":{"latitude":"50.9432159"}},{"storeLogo":"Douglas","storeName":"Douglas Magdeburg","storeAddress":{"street":"Ernst-Reuter-Allee","number":"11","zipCode":"39104","city":"Magdeburg"},"storeCoordinates":{"latitude":"52.13010149999999"}},{"storeLogo":"Douglas","storeName":"Douglas Schwerin","storeAddress":{"street":"Marienplatz","number":"5","zipCode":"19053","city":"Schwerin"},"storeCoordinates":{"latitude":"53.62818"}},{"storeLogo":"Douglas","storeName":"Douglas Stralsund","storeAddress":{"street":"Ossenreyer Str.","number":"28","zipCode":"18439","city":"Stralsund"},"storeCoordinates":{"latitude":"54.3128217"}},{"storeLogo":"Douglas","storeName":"Douglas Düsseldorf","storeAddress":{"street":"Luise-Rainer-Strasse","number":"7-11","zipCode":"40235","city":"Düsseldorf"},"storeCoordinates":{"latitude":"51.2323854"}},{"storeLogo":"Douglas","storeName":"Douglas Dortmund","storeAddress":{"street":"Westenhellweg","number":"102-105","zipCode":"44137","city":"Dortmund"},"storeCoordinates":{"latitude":"51.5128394"}},{"storeLogo":"Douglas","storeName":"Douglas Hagen","storeAddress":{"street":"Elberfelder Str.","number":"31-33","zipCode":"58095","city":"Hagen"},"storeCoordinates":{"latitude":"51.3579824"}},{"storeLogo":"Douglas","storeName":"Douglas Gelsenkirchen","storeAddress":{"street":"Hochstr","number":"13","zipCode":"45894","city":"Gelsenkirchen"},"storeCoordinates":{"latitude":"51.5785878"}},{"storeLogo":"Douglas","storeName":"Douglas Bad Nauheim","storeAddress":{"street":"Stresemannstr.","number":"24","zipCode":"61231","city":"Bad Nauheim"},"storeCoordinates":{"latitude":"50.3644944"}},{"storeLogo":"Douglas","storeName":"Douglas Dortmund","storeAddress":{"street":"Westenhellweg","number":"64","zipCode":"44137","city":"Dortmund"},"storeCoordinates":{"latitude":"51.514135"}},{"storeLogo":"Douglas","storeName":"Douglas Wuppertal","storeAddress":{"street":"Alte Freiheit","number":"9","zipCode":"42103","city":"Wuppertal"},"storeCoordinates":{"latitude":"51.2575878"}},{"storeLogo":"Douglas","storeName":"Douglas Duisburg","storeAddress":{"street":"Königstr.","number":"12","zipCode":"47051","city":"Duisburg"},"storeCoordinates":{"latitude":"51.4332805"}},{"storeLogo":"Douglas","storeName":"Douglas Gelsenkirchen","storeAddress":{"street":"Bahnhofstr.","number":"68","zipCode":"45879","city":"Gelsenkirchen"},"storeCoordinates":{"latitude":"51.5067785"}},{"storeLogo":"Douglas","storeName":"Douglas Fellbach","storeAddress":{"street":"Cannstatter Straße","number":"60","zipCode":"70734","city":"Fellbach"},"storeCoordinates":{"latitude":"48.8097569"}},{"storeLogo":"Douglas","storeName":"Douglas Münster","storeAddress":{"street":"Ludgeristr.","number":"22","zipCode":"48143","city":"Münster"},"storeCoordinates":{"latitude":"51.9596177"}},{"storeLogo":"Douglas","storeName":"Douglas Schorndorf","storeAddress":{"street":"Johann-Philipp-Palm-Str.","number":"19","zipCode":"73614","city":"Schorndorf"},"storeCoordinates":{"latitude":"48.8054237"}},{"storeLogo":"Douglas","storeName":"Douglas Bonn","storeAddress":{"street":"Sternstr.","number":"54","zipCode":"53111","city":"Bonn"},"storeCoordinates":{"latitude":"50.7358466"}},{"storeLogo":"Douglas","storeName":"Douglas Hattingen","storeAddress":{"street":"Heggerstr.","number":"1","zipCode":"45525","city":"Hattingen"},"storeCoordinates":{"latitude":"51.3990212"}},{"storeLogo":"Douglas","storeName":"Douglas Mönchengladbach","storeAddress":{"street":"Hindenburgstr.","number":"108","zipCode":"41061","city":"Mönchengladbach"},"storeCoordinates":{"latitude":"51.1945737"}},{"storeLogo":"Douglas","storeName":"Douglas Haltern","storeAddress":{"street":"Rekumer Str.","number":"11","zipCode":"45721","city":"Haltern"},"storeCoordinates":{"latitude":"51.7433126"}},{"storeLogo":"Douglas","storeName":"Douglas Bad Münstereifel","storeAddress":{"street":"Werther Str.","number":"26","zipCode":"53902","city":"Bad Münstereifel"},"storeCoordinates":{"latitude":"50.556366"}},{"storeLogo":"Douglas","storeName":"Douglas Bochum","storeAddress":{"street":"Kortumstr.","number":"78","zipCode":"44787","city":"Bochum"},"storeCoordinates":{"latitude":"51.4813455"}},{"storeLogo":"Douglas","storeName":"Douglas Gladbeck","storeAddress":{"street":"Hochstr.","number":"18","zipCode":"45964","city":"Gladbeck"},"storeCoordinates":{"latitude":"51.5733237"}},{"storeLogo":"Douglas","storeName":"Douglas Recklinghausen","storeAddress":{"street":"Markt","number":"11","zipCode":"45657","city":"Recklinghausen"},"storeCoordinates":{"latitude":"51.6147086"}},{"storeLogo":"Douglas","storeName":"Douglas Saarbrücken","storeAddress":{"street":"Trierer Str.","number":"1","zipCode":"66111","city":"Saarbrücken"},"storeCoordinates":{"latitude":"49.2396416"}},{"storeLogo":"Douglas","storeName":"Douglas Oberhausen","storeAddress":{"street":"Bahnhofstr.","number":"50","zipCode":"46145","city":"Oberhausen"},"storeCoordinates":{"latitude":"51.5148196"}},{"storeLogo":"Douglas","storeName":"Douglas Essen","storeAddress":{"street":"Rüttenscheider Str.","number":"86","zipCode":"45130","city":"Essen"},"storeCoordinates":{"latitude":"51.435858"}},{"storeLogo":"Douglas","storeName":"Douglas Mönchengladbach","storeAddress":{"street":"Stresemannstr.","number":"29","zipCode":"41236","city":"Mönchengladbach"},"storeCoordinates":{"latitude":"51.166279"}},{"storeLogo":"Douglas","storeName":"Douglas Viersen","storeAddress":{"street":"Hauptstr.","number":"53-55","zipCode":"41747","city":"Viersen"},"storeCoordinates":{"latitude":"51.256947"}},{"storeLogo":"Douglas","storeName":"Douglas Dinslaken","storeAddress":{"street":"Neustr.","number":"1","zipCode":"46535","city":"Dinslaken"},"storeCoordinates":{"latitude":"51.5629997"}},{"storeLogo":"Douglas","storeName":"Douglas Münster","storeAddress":{"street":"Prinzipalmarkt","number":"24-26","zipCode":"48143","city":"Münster"},"storeCoordinates":{"latitude":"51.961545"}},{"storeLogo":"Douglas","storeName":"Douglas Herne","storeAddress":{"street":"Bahnhofstr.","number":"33","zipCode":"44623","city":"Herne"},"storeCoordinates":{"latitude":"51.5394282"}},{"storeLogo":"Douglas","storeName":"Douglas Dorsten","storeAddress":{"street":"Lippestr.","number":"16","zipCode":"46282","city":"Dorsten"},"storeCoordinates":{"latitude":"51.66125719999999"}},{"storeLogo":"Douglas","storeName":"Douglas Arnsberg","storeAddress":{"street":"Hauptstr.","number":"46","zipCode":"59755","city":"Arnsberg"},"storeCoordinates":{"latitude":"51.4509771"}},{"storeLogo":"Douglas","storeName":"Douglas Wuppertal","storeAddress":{"street":"Herzogstr.","number":"17","zipCode":"42103","city":"Wuppertal"},"storeCoordinates":{"latitude":"51.2571395"}},{"storeLogo":"Douglas","storeName":"Douglas Bottrop","storeAddress":{"street":"Hansastr.","number":"6","zipCode":"46236","city":"Bottrop"},"storeCoordinates":{"latitude":"51.5209617"}},{"storeLogo":"Douglas","storeName":"Douglas Bocholt","storeAddress":{"street":"Neustr.","number":"15","zipCode":"46399","city":"Bocholt"},"storeCoordinates":{"latitude":"51.8373316"}},{"storeLogo":"Douglas","storeName":"Douglas Hamm","storeAddress":{"street":"Richard-Matthaei-Platz","number":"1","zipCode":"59065","city":"Hamm"},"storeCoordinates":{"latitude":"51.68157"}},{"storeLogo":"Douglas","storeName":"Douglas Hilden","storeAddress":{"street":"Mittelstr.","number":"49-51","zipCode":"40721","city":"Hilden"},"storeCoordinates":{"latitude":"51.1689808"}},{"storeLogo":"Douglas","storeName":"Douglas Mülheim","storeAddress":{"street":"Humboldtring","number":"0","zipCode":"45472","city":"Mülheim"},"storeCoordinates":{"latitude":"51.4382338"}},{"storeLogo":"Douglas","storeName":"Douglas Mülheim","storeAddress":{"street":"Hans-Böckler-Platz","number":"0","zipCode":"45468","city":"Mülheim"},"storeCoordinates":{"latitude":"51.4295201"}},{"storeLogo":"Douglas","storeName":"Douglas Witten","storeAddress":{"street":"Bahnhofstr.","number":"18","zipCode":"58452","city":"Witten"},"storeCoordinates":{"latitude":"51.4387487"}},{"storeLogo":"Douglas","storeName":"Douglas Oberhausen","storeAddress":{"street":"Centro-Allee","number":"174","zipCode":"46047","city":"Oberhausen"},"storeCoordinates":{"latitude":"51.49028029999999"}},{"storeLogo":"Douglas","storeName":"Douglas Solingen Ohligs","storeAddress":{"street":"Düsseldorfer Str.","number":"35","zipCode":"42697","city":"Solingen Ohligs"},"storeCoordinates":{"latitude":"51.1616814"}},{"storeLogo":"Douglas","storeName":"Douglas Essen","storeAddress":{"street":"Kettwiger Str.","number":"42","zipCode":"45127","city":"Essen"},"storeCoordinates":{"latitude":"51.4561942"}},{"storeLogo":"Douglas","storeName":"Douglas Coesfeld","storeAddress":{"street":"Schüppenstraße","number":"22","zipCode":"48653","city":"Coesfeld"},"storeCoordinates":{"latitude":"51.9444495"}},{"storeLogo":"Douglas","storeName":"Douglas Langenhagen","storeAddress":{"street":"Marktplatz","number":"7","zipCode":"30853","city":"Langenhagen"},"storeCoordinates":{"latitude":"52.4392502"}},{"storeLogo":"Douglas","storeName":"Douglas München","storeAddress":{"street":"Rosental","number":"7","zipCode":"80331","city":"München"},"storeCoordinates":{"latitude":"48.1354621"}},{"storeLogo":"Douglas","storeName":"Douglas München","storeAddress":{"street":"Leopoldstr.","number":"48","zipCode":"80802","city":"München"},"storeCoordinates":{"latitude":"48.1576572"}},{"storeLogo":"Douglas","storeName":"Douglas München","storeAddress":{"street":"Sendlinger Str.","number":"62","zipCode":"80331","city":"München"},"storeCoordinates":{"latitude":"48.1343753"}},{"storeLogo":"Douglas","storeName":"Douglas München","storeAddress":{"street":"Neuhauser Str.","number":"39","zipCode":"80331","city":"München"},"storeCoordinates":{"latitude":"48.1386316"}},{"storeLogo":"Douglas","storeName":"Douglas Gräfelfing","storeAddress":{"street":"Bahnhofstr.","number":"7a","zipCode":"82166","city":"Gräfelfing"},"storeCoordinates":{"latitude":"48.1168568"}},{"storeLogo":"Douglas","storeName":"Douglas Stuhr","storeAddress":{"street":"Bremer Str.","number":"115","zipCode":"28816","city":"Stuhr"},"storeCoordinates":{"latitude":"53.0302129"}},{"storeLogo":"Douglas","storeName":"Douglas Ingolstadt","storeAddress":{"street":"Otto-Hahn-Straße","number":"1","zipCode":"85055","city":"Ingolstadt"},"storeCoordinates":{"latitude":"48.7838736"}},{"storeLogo":"Douglas","storeName":"Douglas Metzingen","storeAddress":{"street":"Enzian Höfe","number":"2","zipCode":"72555","city":"Metzingen"},"storeCoordinates":{"latitude":"48.5367408"}},{"storeLogo":"Douglas","storeName":"Douglas München","storeAddress":{"street":"Passauer Strasse","number":"44","zipCode":"81369","city":"München"},"storeCoordinates":{"latitude":"48.11236230000001"}},{"storeLogo":"Douglas","storeName":"Douglas Freising","storeAddress":{"street":"Untere Hauptstr.","number":"4","zipCode":"85354","city":"Freising"},"storeCoordinates":{"latitude":"48.4007917"}},{"storeLogo":"Douglas","storeName":"Douglas Göttingen","storeAddress":{"street":"Otto-Brenner-Str.","number":"1","zipCode":"37079","city":"Göttingen"},"storeCoordinates":{"latitude":"51.5299655"}},{"storeLogo":"Douglas","storeName":"Douglas Worms","storeAddress":{"street":"Kämmererstraße","number":"36","zipCode":"67547","city":"Worms"},"storeCoordinates":{"latitude":"49.63195"}},{"storeLogo":"Douglas","storeName":"Douglas Lampertheim","storeAddress":{"street":"Kaiserstraße","number":"32","zipCode":"68623","city":"Lampertheim"},"storeCoordinates":{"latitude":"49.5964892"}},{"storeLogo":"Douglas","storeName":"Douglas Bamberg","storeAddress":{"street":"Grüner Markt","number":"31","zipCode":"96047","city":"Bamberg"},"storeCoordinates":{"latitude":"49.8941779"}},{"storeLogo":"Douglas","storeName":"Douglas Jena","storeAddress":{"street":"Goethestr.","number":"3","zipCode":"07743","city":"Jena"},"storeCoordinates":{"latitude":"50.9274973"}},{"storeLogo":"Douglas","storeName":"Douglas Weimar","storeAddress":{"street":"Schillerstraße","number":"11a","zipCode":"99423","city":"Weimar"},"storeCoordinates":{"latitude":"50.9785894"}},{"storeLogo":"Douglas","storeName":"Douglas Hagen","storeAddress":{"street":"Kabeler Str.","number":"4","zipCode":"58099","city":"Hagen"},"storeCoordinates":{"latitude":"51.407504"}},{"storeLogo":"Douglas","storeName":"Douglas Stuttgart","storeAddress":{"street":"Mailänder Platz","number":"7","zipCode":"70173","city":"Stuttgart"},"storeCoordinates":{"latitude":"48.7906629"}},{"storeLogo":"Douglas","storeName":"Douglas Sindelfingen","storeAddress":{"street":"Tilsiterstr.","number":"15","zipCode":"71065","city":"Sindelfingen"},"storeCoordinates":{"latitude":"48.70438910000001"}},{"storeLogo":"Douglas","storeName":"Douglas Ludwigsburg","storeAddress":{"street":"Heinkelstr.","number":"1-11","zipCode":"71634","city":"Ludwigsburg"},"storeCoordinates":{"latitude":"48.9213616"}},{"storeLogo":"Douglas","storeName":"Douglas Waiblingen","storeAddress":{"street":"Langestr.","number":"64","zipCode":"71332","city":"Waiblingen"},"storeCoordinates":{"latitude":"48.8308633"}},{"storeLogo":"Douglas","storeName":"Douglas Buchen","storeAddress":{"street":"Marktstraße","number":"17","zipCode":"74722","city":"Buchen"},"storeCoordinates":{"latitude":"49.5219739"}},{"storeLogo":"Douglas","storeName":"Douglas Gera","storeAddress":{"street":"Arkaden, Heinrichstr.","number":"30","zipCode":"07545","city":"Gera"},"storeCoordinates":{"latitude":"50.8757872"}},{"storeLogo":"Douglas","storeName":"Douglas Eisenach","storeAddress":{"street":"Karlstraße","number":"43","zipCode":"99817","city":"Eisenach"},"storeCoordinates":{"latitude":"50.9751449"}},{"storeLogo":"Douglas","storeName":"Douglas Sulzbach","storeAddress":{"street":"Main-Taunus-Zentrum","number":"0","zipCode":"65843","city":"Sulzbach"},"storeCoordinates":{"latitude":"50.1189573"}},{"storeLogo":"Douglas","storeName":"Douglas Berlin","storeAddress":{"street":"Unter den Linden","number":"16","zipCode":"10117","city":"Berlin"},"storeCoordinates":{"latitude":"52.5176254"}},{"storeLogo":"Douglas","storeName":"Douglas Fulda","storeAddress":{"street":"Bahnhofstrasse","number":"12","zipCode":"36037","city":"Fulda"},"storeCoordinates":{"latitude":"50.5530191"}},{"storeLogo":"Douglas","storeName":"Douglas Offenbach","storeAddress":{"street":"Frankfurter Str.","number":"23","zipCode":"63065","city":"Offenbach"},"storeCoordinates":{"latitude":"50.1049678"}},{"storeLogo":"Douglas","storeName":"Douglas Neu-Ulm","storeAddress":{"street":"Bahnhofstr.","number":"1","zipCode":"89231","city":"Neu-Ulm"},"storeCoordinates":{"latitude":"48.393081"}},{"storeLogo":"Douglas","storeName":"Douglas Wetzlar","storeAddress":{"street":"Am Forum","number":"1","zipCode":"35576","city":"Wetzlar"},"storeCoordinates":{"latitude":"50.5648614"}},{"storeLogo":"Douglas","storeName":"Douglas Frankfurt","storeAddress":{"street":"Tituscorso","number":"1","zipCode":"60439","city":"Frankfurt"},"storeCoordinates":{"latitude":"50.158341"}},{"storeLogo":"Douglas","storeName":"Douglas Magdeburg","storeAddress":{"street":"Salbker Chaussee","number":"67","zipCode":"39118","city":"Magdeburg"},"storeCoordinates":{"latitude":"52.0839296"}},{"storeLogo":"Douglas","storeName":"Douglas Schwetzingen","storeAddress":{"street":"Carl-Theodor Straße","number":"18","zipCode":"68723","city":"Schwetzingen"},"storeCoordinates":{"latitude":"49.3847246"}},{"storeLogo":"Douglas","storeName":"Douglas Ahrensfelde","storeAddress":{"street":"Landsberger Chaussee","number":"17","zipCode":"16356","city":"Ahrensfelde"},"storeCoordinates":{"latitude":"52.5493491"}},{"storeLogo":"Douglas","storeName":"Douglas Bad Homburg","storeAddress":{"street":"Louisenstr.","number":"79","zipCode":"61348","city":"Bad Homburg"},"storeCoordinates":{"latitude":"50.2261844"}},{"storeLogo":"Douglas","storeName":"Douglas Frankfurt","storeAddress":{"street":"Borsigallee","number":"26","zipCode":"60388","city":"Frankfurt"},"storeCoordinates":{"latitude":"50.140602"}},{"storeLogo":"Douglas","storeName":"Douglas Schwetzingen","storeAddress":{"street":"Mannheimer Str.","number":"15-17","zipCode":"68723","city":"Schwetzingen"},"storeCoordinates":{"latitude":"49.3856085"}},{"storeLogo":"Douglas","storeName":"Douglas Berlin","storeAddress":{"street":"Tempelhofer Damm","number":"227","zipCode":"12099","city":"Berlin"},"storeCoordinates":{"latitude":"52.4553087"}},{"storeLogo":"Douglas","storeName":"Douglas Leipzig","storeAddress":{"street":"Grimmaische Straße","number":"25","zipCode":"04109","city":"Leipzig"},"storeCoordinates":{"latitude":"51.3398212"}},{"storeLogo":"Douglas","storeName":"Douglas Berlin","storeAddress":{"street":"Marzahner Promenade","number":"1a","zipCode":"12679","city":"Berlin"},"storeCoordinates":{"latitude":"52.5436813"}},{"storeLogo":"Douglas","storeName":"Douglas Berlin","storeAddress":{"street":"Leipziger Platz","number":"12","zipCode":"10117","city":"Berlin"},"storeCoordinates":{"latitude":"52.5102491"}},{"storeLogo":"Douglas","storeName":"Douglas Berlin","storeAddress":{"street":"Stromstr.","number":"11-17","zipCode":"10551","city":"Berlin"},"storeCoordinates":{"latitude":"52.52719099999999"}},{"storeLogo":"Douglas","storeName":"Douglas Schwedt/Oder","storeAddress":{"street":"Landgrabenpark","number":"1","zipCode":"16303","city":"Schwedt/Oder"},"storeCoordinates":{"latitude":"53.0655381"}},{"storeLogo":"Douglas","storeName":"Douglas Berlin","storeAddress":{"street":"Frankfurter Allee","number":"111","zipCode":"10247","city":"Berlin"},"storeCoordinates":{"latitude":"52.5142282"}},{"storeLogo":"Douglas","storeName":"Douglas Berlin","storeAddress":{"street":"Bahnhofstr.","number":"35-38","zipCode":"12555","city":"Berlin"},"storeCoordinates":{"latitude":"52.458166"}},{"storeLogo":"Douglas","storeName":"Douglas Potsdam","storeAddress":{"street":"Nuthestr./Ecke Sternstr.","number":"1-10","zipCode":"14480","city":"Potsdam"},"storeCoordinates":{"latitude":"52.362108"}},{"storeLogo":"Douglas","storeName":"Douglas Berlin","storeAddress":{"street":"Badstr.","number":"4","zipCode":"13357","city":"Berlin"},"storeCoordinates":{"latitude":"52.54967079999999"}},{"storeLogo":"Douglas","storeName":"Douglas Wildau","storeAddress":{"street":"Chausseestr.","number":"1","zipCode":"15745","city":"Wildau"},"storeCoordinates":{"latitude":"52.3143666"}},{"storeLogo":"Douglas","storeName":"Douglas Berlin","storeAddress":{"street":"Johannistaler Chaussee","number":"329","zipCode":"12351","city":"Berlin"},"storeCoordinates":{"latitude":"52.4290844"}},{"storeLogo":"Douglas","storeName":"Douglas Neubrandenburg","storeAddress":{"street":"Marktplatz","number":"2","zipCode":"17033","city":"Neubrandenburg"},"storeCoordinates":{"latitude":"53.5573835"}},{"storeLogo":"Douglas","storeName":"Douglas Berlin","storeAddress":{"street":"Tauentzienstr.","number":"16","zipCode":"10789","city":"Berlin"},"storeCoordinates":{"latitude":"52.5036674"}},{"storeLogo":"Douglas","storeName":"Douglas Berlin","storeAddress":{"street":"Schönhauser Allee","number":"78-80","zipCode":"10439","city":"Berlin"},"storeCoordinates":{"latitude":"52.5495017"}},{"storeLogo":"Douglas","storeName":"Douglas Berlin","storeAddress":{"street":"Karl-Marx-Str.","number":"66","zipCode":"12043","city":"Berlin"},"storeCoordinates":{"latitude":"52.4820247"}},{"storeLogo":"Douglas","storeName":"Douglas Berlin","storeAddress":{"street":"Am Borsigturm","number":"11","zipCode":"13507","city":"Berlin"},"storeCoordinates":{"latitude":"52.58345"}},{"storeLogo":"Douglas","storeName":"Douglas Garmisch-Partenkirchen","storeAddress":{"street":"Am Kurpark","number":"6","zipCode":"82467","city":"Garmisch-Partenkirchen"},"storeCoordinates":{"latitude":"47.4943726"}},{"storeLogo":"Douglas","storeName":"Douglas Pforzheim","storeAddress":{"street":"Westl.Karl-Friedr.-Str.","number":"5","zipCode":"75172","city":"Pforzheim"},"storeCoordinates":{"latitude":"48.8913048"}},{"storeLogo":"Douglas","storeName":"Douglas Starnberg","storeAddress":{"street":"Maximilianstr.","number":"4b","zipCode":"82319","city":"Starnberg"},"storeCoordinates":{"latitude":"47.99740389999999"}},{"storeLogo":"Douglas","storeName":"Douglas Rottach-Egern","storeAddress":{"street":"Nördliche Hauptstr.","number":"18","zipCode":"83700","city":"Rottach-Egern"},"storeCoordinates":{"latitude":"47.6913567"}},{"storeLogo":"Douglas","storeName":"Douglas Bietigheim","storeAddress":{"street":"Fräuleinstraße","number":"1","zipCode":"74321","city":"Bietigheim"},"storeCoordinates":{"latitude":"48.9598698"}},{"storeLogo":"Douglas","storeName":"Douglas Pfedelbach","storeAddress":{"street":"Meisenstrasse","number":"12","zipCode":"74629","city":"Pfedelbach"},"storeCoordinates":{"latitude":"49.1830249"}},{"storeLogo":"Douglas","storeName":"Douglas Kempten","storeAddress":{"street":"August-Fischer-Platz","number":"1","zipCode":"87435","city":"Kempten"},"storeCoordinates":{"latitude":"47.7206768"}},{"storeLogo":"Douglas","storeName":"Douglas Kempten","storeAddress":{"street":"Fischerstraße","number":"11","zipCode":"87435","city":"Kempten"},"storeCoordinates":{"latitude":"47.7250615"}},{"storeLogo":"Douglas","storeName":"Douglas Hof","storeAddress":{"street":"Altstadt","number":"17","zipCode":"95028","city":"Hof"},"storeCoordinates":{"latitude":"50.3179081"}},{"storeLogo":"Douglas","storeName":"Douglas Memmingen","storeAddress":{"street":"Kramerstr.","number":"16","zipCode":"87700","city":"Memmingen"},"storeCoordinates":{"latitude":"47.9854292"}},{"storeLogo":"Douglas","storeName":"Douglas Pfedelbach","storeAddress":{"street":"Meisenstrasse","number":"12","zipCode":"74629","city":"Pfedelbach"},"storeCoordinates":{"latitude":"49.1830249"}},{"storeLogo":"Douglas","storeName":"Douglas Pfedelbach","storeAddress":{"street":"Meisenstrasse","number":"12","zipCode":"74629","city":"Pfedelbach"},"storeCoordinates":{"latitude":"49.1830249"}},{"storeLogo":"Douglas","storeName":"Douglas Potsdam","storeAddress":{"street":"Babelsberger Str.","number":"16","zipCode":"14473","city":"Potsdam"},"storeCoordinates":{"latitude":"52.3923298"}},{"storeLogo":"Douglas","storeName":"Douglas Berlin","storeAddress":{"street":"Hbf Berlin, Europaplatz","number":"1","zipCode":"10557","city":"Berlin"},"storeCoordinates":{"latitude":"52.5251109"}},{"storeLogo":"Douglas","storeName":"Douglas Berlin","storeAddress":{"street":"Wilmersdorferstr.","number":"46","zipCode":"10627","city":"Berlin"},"storeCoordinates":{"latitude":"52.509249"}},{"storeLogo":"Douglas","storeName":"Douglas Brandenburg","storeAddress":{"street":"St.-Annen-Str.","number":"23","zipCode":"14776","city":"Brandenburg"},"storeCoordinates":{"latitude":"52.4079937"}},{"storeLogo":"Douglas","storeName":"Douglas Pfedelbach","storeAddress":{"street":"Meisenstrasse","number":"12","zipCode":"74629","city":"Pfedelbach"},"storeCoordinates":{"latitude":"49.1830249"}},{"storeLogo":"Douglas","storeName":"Douglas Berlin","storeAddress":{"street":"Schloßstraße","number":"34","zipCode":"12163","city":"Berlin"},"storeCoordinates":{"latitude":"52.457979"}},{"storeLogo":"Douglas","storeName":"Douglas Potsdam","storeAddress":{"street":"Brandenburgerstr.","number":"53","zipCode":"14467","city":"Potsdam"},"storeCoordinates":{"latitude":"52.400537"}},{"storeLogo":"Douglas","storeName":"Douglas Berlin","storeAddress":{"street":"Kurfürstendamm","number":"33","zipCode":"10719","city":"Berlin"},"storeCoordinates":{"latitude":"52.5028501"}},{"storeLogo":"Douglas","storeName":"Douglas Dallgow","storeAddress":{"street":"Döberitzer Weg","number":"3","zipCode":"14624","city":"Dallgow"},"storeCoordinates":{"latitude":"52.5280855"}},{"storeLogo":"Douglas","storeName":"Douglas Pfedelbach","storeAddress":{"street":"Meisenstrasse","number":"12","zipCode":"74629","city":"Pfedelbach"},"storeCoordinates":{"latitude":"49.1830249"}},{"storeLogo":"Douglas","storeName":"Douglas Berlin","storeAddress":{"street":"Grunerstrasse","number":"20","zipCode":"10179","city":"Berlin"},"storeCoordinates":{"latitude":"52.519738"}},{"storeLogo":"Douglas","storeName":"Douglas Berlin","storeAddress":{"street":"Schloßstr.","number":"15","zipCode":"12163","city":"Berlin"},"storeCoordinates":{"latitude":"52.4619126"}},{"storeLogo":"Douglas","storeName":"Douglas Pirmasens","storeAddress":{"street":"Hauptstr.","number":"23","zipCode":"66953","city":"Pirmasens"},"storeCoordinates":{"latitude":"49.1999499"}},{"storeLogo":"Douglas","storeName":"Douglas Berlin","storeAddress":{"street":"Hohenzollerndamm","number":"93","zipCode":"14199","city":"Berlin"},"storeCoordinates":{"latitude":"52.4781081"}},{"storeLogo":"Douglas","storeName":"Douglas Stuttgart","storeAddress":{"street":"Königstr.","number":"28","zipCode":"70173","city":"Stuttgart"},"storeCoordinates":{"latitude":"48.7793162"}},{"storeLogo":"Douglas","storeName":"Douglas Stuttgart","storeAddress":{"street":"Königstr.","number":"16","zipCode":"70173","city":"Stuttgart"},"storeCoordinates":{"latitude":"48.7804489"}},{"storeLogo":"Douglas","storeName":"Douglas Pforzheim","storeAddress":{"street":"Leopoldstr.","number":"5","zipCode":"75172","city":"Pforzheim"},"storeCoordinates":{"latitude":"48.8909253"}},{"storeLogo":"Douglas","storeName":"Douglas Pforzheim","storeAddress":{"street":"Westliche Karl-Friedrich-","number":"43","zipCode":"75172","city":"Pforzheim"},"storeCoordinates":{"latitude":"48.8915479"}},{"storeLogo":"Douglas","storeName":"Douglas Schweinfurt","storeAddress":{"street":"Schrammstr.","number":"5","zipCode":"97421","city":"Schweinfurt"},"storeCoordinates":{"latitude":"50.0399523"}},{"storeLogo":"Douglas","storeName":"Douglas Baden-Baden","storeAddress":{"street":"Lange Str.","number":"13","zipCode":"76530","city":"Baden-Baden"},"storeCoordinates":{"latitude":"48.7616988"}},{"storeLogo":"Douglas","storeName":"Douglas Esslingen","storeAddress":{"street":"Berliner Str.","number":"2","zipCode":"73728","city":"Esslingen"},"storeCoordinates":{"latitude":"48.7403489"}},{"storeLogo":"Douglas","storeName":"Douglas Bamberg","storeAddress":{"street":"Maximiliansplatz","number":"2","zipCode":"96047","city":"Bamberg"},"storeCoordinates":{"latitude":"49.8939756"}},{"storeLogo":"Douglas","storeName":"Douglas Schwäbisch Gmünd","storeAddress":{"street":"Bocksgasse","number":"2","zipCode":"73525","city":"Schwäbisch Gmünd"},"storeCoordinates":{"latitude":"48.7996857"}},{"storeLogo":"Douglas","storeName":"Douglas Ludwigsburg","storeAddress":{"street":"Marstall-Center","number":"1","zipCode":"71634","city":"Ludwigsburg"},"storeCoordinates":{"latitude":"48.89981479999999"}},{"storeLogo":"Douglas","storeName":"Douglas Bad Kissingen","storeAddress":{"street":"Untere Marktstr.","number":"12","zipCode":"97688","city":"Bad Kissingen"},"storeCoordinates":{"latitude":"50.198938"}},{"storeLogo":"Douglas","storeName":"Douglas Freiburg","storeAddress":{"street":"Kaiser-Joseph-Str.","number":"170","zipCode":"79098","city":"Freiburg"},"storeCoordinates":{"latitude":"47.99724399999999"}},{"storeLogo":"Douglas","storeName":"Douglas Erfurt","storeAddress":{"street":"Anger","number":"1","zipCode":"99084","city":"Erfurt"},"storeCoordinates":{"latitude":"50.9768151"}},{"storeLogo":"Douglas","storeName":"Douglas Erfurt","storeAddress":{"street":"Anger","number":"53","zipCode":"99084","city":"Erfurt"},"storeCoordinates":{"latitude":"50.9751708"}},{"storeLogo":"Douglas","storeName":"Douglas Leonberg","storeAddress":{"street":"Leonberger Straße","number":"98-108","zipCode":"71229","city":"Leonberg"},"storeCoordinates":{"latitude":"48.7948397"}},{"storeLogo":"Douglas","storeName":"Douglas Erfurt","storeAddress":{"street":"Nordhäuser Straße","number":"73","zipCode":"99091","city":"Erfurt"},"storeCoordinates":{"latitude":"51.00855019999999"}},{"storeLogo":"Douglas","storeName":"Douglas Berlin","storeAddress":{"street":"Alte Potsdamer Str.","number":"7","zipCode":"10785","city":"Berlin"},"storeCoordinates":{"latitude":"52.5079083"}},{"storeLogo":"Douglas","storeName":"Douglas Berlin","storeAddress":{"street":"Ludolfinger Platz","number":"2","zipCode":"13465","city":"Berlin"},"storeCoordinates":{"latitude":"52.6331301"}},{"storeLogo":"Douglas","storeName":"Douglas Berlin","storeAddress":{"street":"Klosterstraße","number":"3","zipCode":"13581","city":"Berlin"},"storeCoordinates":{"latitude":"52.5343325"}},{"storeLogo":"Douglas","storeName":"Douglas Pfedelbach","storeAddress":{"street":"Meisenstrasse","number":"12","zipCode":"74629","city":"Pfedelbach"},"storeCoordinates":{"latitude":"49.1830249"}},{"storeLogo":"Douglas","storeName":"Douglas Pfedelbach","storeAddress":{"street":"Meisenstrasse","number":"12","zipCode":"74629","city":"Pfedelbach"},"storeCoordinates":{"latitude":"49.1830249"}},{"storeLogo":"Douglas","storeName":"Douglas Kassel","storeAddress":{"street":"Obere Königsstr.","number":"47a","zipCode":"34117","city":"Kassel"},"storeCoordinates":{"latitude":"51.3150452"}},{"storeLogo":"Douglas","storeName":"Douglas Neuss","storeAddress":{"street":"Breslauer Str.","number":"2-4","zipCode":"41460","city":"Neuss"},"storeCoordinates":{"latitude":"51.201241"}},{"storeLogo":"Douglas","storeName":"Douglas Pfedelbach","storeAddress":{"street":"Meisenstrasse","number":"12","zipCode":"74629","city":"Pfedelbach"},"storeCoordinates":{"latitude":"49.1830249"}},{"storeLogo":"Douglas","storeName":"Douglas Pfedelbach","storeAddress":{"street":"Meisenstrasse","number":"12","zipCode":"74629","city":"Pfedelbach"},"storeCoordinates":{"latitude":"49.1830249"}},{"storeLogo":"Douglas","storeName":"Douglas Pfedelbach","storeAddress":{"street":"Meisenstrasse","number":"12","zipCode":"74629","city":"Pfedelbach"},"storeCoordinates":{"latitude":"49.1830249"}},{"storeLogo":"Douglas","storeName":"Douglas Pfedelbach","storeAddress":{"street":"Meisenstrasse","number":"12","zipCode":"74629","city":"Pfedelbach"},"storeCoordinates":{"latitude":"49.1830249"}},{"storeLogo":"Douglas","storeName":"Douglas Halle","storeAddress":{"street":"Leipziger Straße","number":"100","zipCode":"06108","city":"Halle"},"storeCoordinates":{"latitude":"51.4816385"}},{"storeLogo":"Douglas","storeName":"Douglas Pfedelbach","storeAddress":{"street":"Meisenstrasse","number":"12","zipCode":"74629","city":"Pfedelbach"},"storeCoordinates":{"latitude":"49.1830249"}},{"storeLogo":"Douglas","storeName":"Douglas Hamburg","storeAddress":{"street":"Ballindamm","number":"40","zipCode":"20095","city":"Hamburg"},"storeCoordinates":{"latitude":"53.5513987"}},{"storeLogo":"Douglas","storeName":"Douglas Pfedelbach","storeAddress":{"street":"Meisenstrasse","number":"12","zipCode":"74629","city":"Pfedelbach"},"storeCoordinates":{"latitude":"49.1830249"}},{"storeLogo":"Douglas","storeName":"Douglas Pfedelbach","storeAddress":{"street":"Meisenstrasse","number":"12","zipCode":"74629","city":"Pfedelbach"},"storeCoordinates":{"latitude":"49.1830249"}},{"storeLogo":"Douglas","storeName":"Douglas Pfedelbach","storeAddress":{"street":"Meisenstrasse","number":"12","zipCode":"74629","city":"Pfedelbach"},"storeCoordinates":{"latitude":"49.1830249"}},{"storeLogo":"Douglas","storeName":"Douglas Villingen","storeAddress":{"street":"Neuer Markt","number":"1","zipCode":"78052","city":"Villingen"},"storeCoordinates":{"latitude":"48.0813268"}},{"storeLogo":"Douglas","storeName":"Douglas Pfedelbach","storeAddress":{"street":"Meisenstrasse","number":"12","zipCode":"74629","city":"Pfedelbach"},"storeCoordinates":{"latitude":"49.1830249"}},{"storeLogo":"Douglas","storeName":"Douglas Pfedelbach","storeAddress":{"street":"Meisenstrasse","number":"12","zipCode":"74629","city":"Pfedelbach"},"storeCoordinates":{"latitude":"49.1830249"}},{"storeLogo":"Douglas","storeName":"Douglas Berlin","storeAddress":{"street":"Prerower Platz","number":"1","zipCode":"13051","city":"Berlin"},"storeCoordinates":{"latitude":"52.5647089"}},{"storeLogo":"Douglas","storeName":"Douglas Pfedelbach","storeAddress":{"street":"Meisenstrasse","number":"12","zipCode":"74629","city":"Pfedelbach"},"storeCoordinates":{"latitude":"49.1830249"}},{"storeLogo":"Douglas","storeName":"Douglas Greifswald","storeAddress":{"street":"Anklamer Landstraße","number":"1","zipCode":"17491","city":"Greifswald"},"storeCoordinates":{"latitude":"54.07652659999999"}},{"storeLogo":"Douglas","storeName":"Douglas Berlin","storeAddress":{"street":"Breite Str.","number":"20","zipCode":"13187","city":"Berlin"},"storeCoordinates":{"latitude":"52.570275"}},{"storeLogo":"Douglas","storeName":"Douglas Lörrach","storeAddress":{"street":"Turmstr.","number":"16","zipCode":"79539","city":"Lörrach"},"storeCoordinates":{"latitude":"47.6124845"}},{"storeLogo":"Douglas","storeName":"Douglas Pfedelbach","storeAddress":{"street":"Meisenstrasse","number":"12","zipCode":"74629","city":"Pfedelbach"},"storeCoordinates":{"latitude":"49.1830249"}},{"storeLogo":"Douglas","storeName":"Douglas Pfedelbach","storeAddress":{"street":"Meisenstrasse","number":"12","zipCode":"74629","city":"Pfedelbach"},"storeCoordinates":{"latitude":"49.1830249"}},{"storeLogo":"Douglas","storeName":"Douglas Marburg","storeAddress":{"street":"Universitätsstraße","number":"14-22","zipCode":"35037","city":"Marburg"},"storeCoordinates":{"latitude":"50.8065042"}},{"storeLogo":"Douglas","storeName":"Douglas Pfedelbach","storeAddress":{"street":"Meisenstrasse","number":"12","zipCode":"74629","city":"Pfedelbach"},"storeCoordinates":{"latitude":"49.1830249"}},{"storeLogo":"Douglas","storeName":"Douglas Pfedelbach","storeAddress":{"street":"Meisenstrasse","number":"12","zipCode":"74629","city":"Pfedelbach"},"storeCoordinates":{"latitude":"49.1830249"}},{"storeLogo":"Douglas","storeName":"Douglas Pfedelbach","storeAddress":{"street":"Meisenstraße","number":"12","zipCode":"74629","city":"Pfedelbach"},"storeCoordinates":{"latitude":"49.1830249"}},{"storeLogo":"Douglas","storeName":"Douglas Nordhorn","storeAddress":{"street":"Hauptstr.","number":"17-19","zipCode":"48529","city":"Nordhorn"},"storeCoordinates":{"latitude":"52.4352855"}},{"storeLogo":"Douglas","storeName":"Douglas Pfedelbach","storeAddress":{"street":"Meisenstrasse","number":"12","zipCode":"74629","city":"Pfedelbach"},"storeCoordinates":{"latitude":"49.1830249"}},{"storeLogo":"Douglas","storeName":"Douglas Bad Neuenahr-Ahrweiler","storeAddress":{"street":"Poststr.","number":"6","zipCode":"53474","city":"Bad Neuenahr-Ahrweiler"},"storeCoordinates":{"latitude":"50.5454884"}},{"storeLogo":"Douglas","storeName":"Douglas Rheine","storeAddress":{"street":"Emsstr.","number":"28-32","zipCode":"48431","city":"Rheine"},"storeCoordinates":{"latitude":"52.278292"}},{"storeLogo":"Douglas","storeName":"Douglas München","storeAddress":{"street":"Kaufingerstr.","number":"17","zipCode":"80331","city":"München"},"storeCoordinates":{"latitude":"48.1379909"}},{"storeLogo":"Douglas","storeName":"Douglas Emsdetten","storeAddress":{"street":"Am Brink","number":"2","zipCode":"48282","city":"Emsdetten"},"storeCoordinates":{"latitude":"52.174865"}},{"storeLogo":"Douglas","storeName":"Douglas Pfedelbach","storeAddress":{"street":"Meisenstrasse","number":"12","zipCode":"74629","city":"Pfedelbach"},"storeCoordinates":{"latitude":"49.1830249"}},{"storeLogo":"Douglas","storeName":"Douglas Pfedelbach","storeAddress":{"street":"Meisenstrasse","number":"12","zipCode":"74629","city":"Pfedelbach"},"storeCoordinates":{"latitude":"49.1830249"}},{"storeLogo":"Douglas","storeName":"Douglas Lingen","storeAddress":{"street":"Marienstr.","number":"1","zipCode":"49808","city":"Lingen"},"storeCoordinates":{"latitude":"52.5215414"}},{"storeLogo":"Douglas","storeName":"Douglas Eschweiler","storeAddress":{"street":"Grabenstr.","number":"69","zipCode":"52249","city":"Eschweiler"},"storeCoordinates":{"latitude":"50.8179043"}},{"storeLogo":"Douglas","storeName":"Douglas Osnabrück","storeAddress":{"street":"Grosse Str.","number":"27","zipCode":"49074","city":"Osnabrück"},"storeCoordinates":{"latitude":"52.2748323"}},{"storeLogo":"Douglas","storeName":"Douglas Pfedelbach","storeAddress":{"street":"Meisenstrasse","number":"12","zipCode":"74629","city":"Pfedelbach"},"storeCoordinates":{"latitude":"49.1830249"}},{"storeLogo":"Douglas","storeName":"Douglas Wilhelmshaven","storeAddress":{"street":"Bahnhofsplatz","number":"1","zipCode":"26382","city":"Wilhelmshaven"},"storeCoordinates":{"latitude":"53.5191684"}},{"storeLogo":"Douglas","storeName":"Douglas Aurich","storeAddress":{"street":"Burgstr.","number":"5","zipCode":"26603","city":"Aurich"},"storeCoordinates":{"latitude":"53.4692041"}},{"storeLogo":"Douglas","storeName":"Douglas Bremen","storeAddress":{"street":"Pfalzburger Str.","number":"41","zipCode":"28207","city":"Bremen"},"storeCoordinates":{"latitude":"53.0631917"}},{"storeLogo":"Douglas","storeName":"Douglas Leer","storeAddress":{"street":"Mühlenstr.","number":"101","zipCode":"26789","city":"Leer"},"storeCoordinates":{"latitude":"53.23103949999999"}},{"storeLogo":"Douglas","storeName":"Douglas Bad Zwischenahn","storeAddress":{"street":"Peterstrasse","number":"33","zipCode":"26160","city":"Bad Zwischenahn"},"storeCoordinates":{"latitude":"53.1836601"}},{"storeLogo":"Douglas","storeName":"Douglas Emden","storeAddress":{"street":"Zwischen Beiden Sielen","number":"15","zipCode":"26721","city":"Emden"},"storeCoordinates":{"latitude":"53.3681645"}},{"storeLogo":"Douglas","storeName":"Douglas Koblenz","storeAddress":{"street":"Zentralplatz","number":"2","zipCode":"56068","city":"Koblenz"},"storeCoordinates":{"latitude":"50.3579727"}},{"storeLogo":"Douglas","storeName":"Douglas Cuxhaven","storeAddress":{"street":"Nordersteinstr.","number":"23","zipCode":"27472","city":"Cuxhaven"},"storeCoordinates":{"latitude":"53.8610027"}},{"storeLogo":"Douglas","storeName":"Douglas Hamburg","storeAddress":{"street":"Eppendorfer Landstr.","number":"67","zipCode":"20249","city":"Hamburg"},"storeCoordinates":{"latitude":"53.5901362"}},{"storeLogo":"Douglas","storeName":"Douglas Nienburg","storeAddress":{"street":"Lange Str.","number":"55","zipCode":"31582","city":"Nienburg"},"storeCoordinates":{"latitude":"52.6397822"}},{"storeLogo":"Douglas","storeName":"Douglas Düsseldorf","storeAddress":{"street":"Friedrichstraße","number":"129-133","zipCode":"40217","city":"Düsseldorf"},"storeCoordinates":{"latitude":"51.2091441"}},{"storeLogo":"Douglas","storeName":"Douglas Bremen","storeAddress":{"street":"AG-Weser-Str.","number":"3","zipCode":"28237","city":"Bremen"},"storeCoordinates":{"latitude":"53.1114382"}},{"storeLogo":"Douglas","storeName":"Douglas Bad Salzuflen","storeAddress":{"street":"Lange Str.","number":"57","zipCode":"32105","city":"Bad Salzuflen"},"storeCoordinates":{"latitude":"52.0857518"}},{"storeLogo":"Douglas","storeName":"Douglas Pfedelbach","storeAddress":{"street":"Meisenstrasse","number":"12","zipCode":"74629","city":"Pfedelbach"},"storeCoordinates":{"latitude":"49.1830249"}},{"storeLogo":"Douglas","storeName":"Douglas Braunschweig","storeAddress":{"street":"Platz am Ritterbrunnen","number":"1","zipCode":"38100","city":"Braunschweig"},"storeCoordinates":{"latitude":"52.2638475"}},{"storeLogo":"Douglas","storeName":"Douglas Pfedelbach","storeAddress":{"street":"Meisenstrasse","number":"12","zipCode":"74629","city":"Pfedelbach"},"storeCoordinates":{"latitude":"49.1830249"}},{"storeLogo":"Douglas","storeName":"Douglas Rostock","storeAddress":{"street":"Kröpeliner Str.","number":"54","zipCode":"18055","city":"Rostock"},"storeCoordinates":{"latitude":"54.0887982"}},{"storeLogo":"Douglas","storeName":"Douglas Uelzen","storeAddress":{"street":"Lüneburger Str.","number":"1","zipCode":"29525","city":"Uelzen"},"storeCoordinates":{"latitude":"52.9650944"}},{"storeLogo":"Douglas","storeName":"Douglas Bad Oeynhausen","storeAddress":{"street":"Mindener Str.","number":"22-24","zipCode":"32547","city":"Bad Oeynhausen"},"storeCoordinates":{"latitude":"52.2137244"}},{"storeLogo":"Douglas","storeName":"Douglas Osnabrück","storeAddress":{"street":"Grosse Str.","number":"27","zipCode":"49074","city":"Osnabrück"},"storeCoordinates":{"latitude":"52.2748323"}},{"storeLogo":"Douglas","storeName":"Douglas Stade","storeAddress":{"street":"Holzstr.","number":"8","zipCode":"21682","city":"Stade"},"storeCoordinates":{"latitude":"53.5992151"}},{"storeLogo":"Douglas","storeName":"Douglas Pfedelbach","storeAddress":{"street":"Meisenstrasse","number":"12","zipCode":"74629","city":"Pfedelbach"},"storeCoordinates":{"latitude":"49.1830249"}},{"storeLogo":"Douglas","storeName":"Douglas Pfedelbach","storeAddress":{"street":"Meisenstrasse","number":"12","zipCode":"74629","city":"Pfedelbach"},"storeCoordinates":{"latitude":"49.1830249"}},{"storeLogo":"Douglas","storeName":"Douglas Pfedelbach","storeAddress":{"street":"Meisenstrasse","number":"12","zipCode":"74629","city":"Pfedelbach"},"storeCoordinates":{"latitude":"49.1830249"}},{"storeLogo":"Douglas","storeName":"Douglas Pfedelbach","storeAddress":{"street":"Meisenstrasse","number":"12","zipCode":"74629","city":"Pfedelbach"},"storeCoordinates":{"latitude":"49.1830249"}},{"storeLogo":"Douglas","storeName":"Douglas Paderborn","storeAddress":{"street":"Pohlweg","number":"110","zipCode":"33100","city":"Paderborn"},"storeCoordinates":{"latitude":"51.7033796"}},{"storeLogo":"Douglas","storeName":"Douglas Unna","storeAddress":{"street":"Bahnhofstr.","number":"3","zipCode":"59423","city":"Unna"},"storeCoordinates":{"latitude":"51.5350662"}},{"storeLogo":"Douglas","storeName":"Douglas Wuppertal","storeAddress":{"street":"Werth","number":"42","zipCode":"42275","city":"Wuppertal"},"storeCoordinates":{"latitude":"51.2713608"}},{"storeLogo":"Douglas","storeName":"Douglas Menden","storeAddress":{"street":"Hauptstr.","number":"43","zipCode":"58706","city":"Menden"},"storeCoordinates":{"latitude":"51.4380029"}},{"storeLogo":"Douglas","storeName":"Douglas Schwerte","storeAddress":{"street":"Hüsingstr.","number":"10-12","zipCode":"58239","city":"Schwerte"},"storeCoordinates":{"latitude":"51.4413697"}},{"storeLogo":"Douglas","storeName":"Douglas Hannover","storeAddress":{"street":"Ernst-August-Platz","number":"2","zipCode":"30159","city":"Hannover"},"storeCoordinates":{"latitude":"52.3775951"}},{"storeLogo":"Douglas","storeName":"Douglas Hameln","storeAddress":{"street":"Am Pferdemarkt","number":"1","zipCode":"31785","city":"Hameln"},"storeCoordinates":{"latitude":"52.1041451"}},{"storeLogo":"Douglas","storeName":"Douglas Wesel","storeAddress":{"street":"Hohe Str.","number":"62","zipCode":"46483","city":"Wesel"},"storeCoordinates":{"latitude":"51.6577303"}},{"storeLogo":"Douglas","storeName":"Douglas Ratingen","storeAddress":{"street":"Oberstr.","number":"12","zipCode":"40878","city":"Ratingen"},"storeCoordinates":{"latitude":"51.2974537"}},{"storeLogo":"Douglas","storeName":"Douglas Kleve","storeAddress":{"street":"Grosse Str.","number":"34-36","zipCode":"47533","city":"Kleve"},"storeCoordinates":{"latitude":"51.7885415"}},{"storeLogo":"Douglas","storeName":"Douglas Mühldorf am Inn","storeAddress":{"street":"Stadtplatz","number":"42","zipCode":"84453","city":"Mühldorf am Inn"},"storeCoordinates":{"latitude":"48.2417342"}},{"storeLogo":"Douglas","storeName":"Douglas Hürth","storeAddress":{"street":"Theresienhöhe","number":"4","zipCode":"50354","city":"Hürth"},"storeCoordinates":{"latitude":"50.8792382"}},{"storeLogo":"Douglas","storeName":"Douglas Rosenheim","storeAddress":{"street":"Münchener Str.","number":"1a","zipCode":"83022","city":"Rosenheim"},"storeCoordinates":{"latitude":"47.854698"}},{"storeLogo":"Douglas","storeName":"Douglas Bad Reichenhall","storeAddress":{"street":"Kaiserplatz","number":"1","zipCode":"83435","city":"Bad Reichenhall"},"storeCoordinates":{"latitude":"47.7243405"}},{"storeLogo":"Douglas","storeName":"Douglas Heidenheim","storeAddress":{"street":"Karlstraße","number":"12","zipCode":"89518","city":"Heidenheim"},"storeCoordinates":{"latitude":"48.68001899999999"}},{"storeLogo":"Douglas","storeName":"Douglas Aalen","storeAddress":{"street":"Marktplatz","number":"10","zipCode":"73430","city":"Aalen"},"storeCoordinates":{"latitude":"48.8371831"}},{"storeLogo":"Douglas","storeName":"Douglas Hagen","storeAddress":{"street":"Kabeler Str","number":"4","zipCode":"58099","city":"Hagen"},"storeCoordinates":{"latitude":"51.407504"}}],"_type":"retailer"}