{"retailerName":"Drogerie Müller","retailerStoreList":[{"storeLogo":"Mueller","storeName":"Ottobrunn Isar Center","storeAddress":{"street":"Unterhachinger Str.","number":"28","zipCode":"85521","city":"Ottobrunn"},"storeCoordinates":{"latitude":48.06315619999999,"longitude":11.6519006}},{"storeLogo":"Mueller","storeName":"Neu-Ulm Offenhausen","storeAddress":{"street":"Heinrich-Heine-Str.","number":"2/1","zipCode":"89231","city":"Neu-Ulm"},"storeCoordinates":{"latitude":48.4011874,"longitude":10.0232254}},{"storeLogo":"Mueller","storeName":"Memmingen Kramerstraße","storeAddress":{"street":"Kramerstr.","number":"49","zipCode":"87700","city":"Memmingen"},"storeCoordinates":{"latitude":47.9832899,"longitude":10.1821362}},{"storeLogo":"Mueller","storeName":"Ravensburg Marktstraße","storeAddress":{"street":"Marktstr.","number":"1 + 3","zipCode":"88212","city":"Ravensburg"},"storeCoordinates":{"latitude":47.78194149999999,"longitude":9.614319799999999}},{"storeLogo":"Mueller","storeName":"Reutlingen","storeAddress":{"street":"Wilhelmstr.","number":"40","zipCode":"72764","city":"Reutlingen"},"storeCoordinates":{"latitude":48.4926797,"longitude":9.210246000000001}},{"storeLogo":"Mueller","storeName":"Leutkirch","storeAddress":{"street":"Ev. Kirchgasse","number":"17","zipCode":"88299","city":"Leutkirch"},"storeCoordinates":{"latitude":47.858891,"longitude":10.0144441}},{"storeLogo":"Mueller","storeName":"Amberg","storeAddress":{"street":"Rathausstr.","number":"2","zipCode":"92224","city":"Amberg"},"storeCoordinates":{"latitude":49.4449678,"longitude":11.8585739}},{"storeLogo":"Mueller","storeName":"Fürstenfeldbruck","storeAddress":{"street":"Hauptstr.","number":"9","zipCode":"82256","city":"Fürstenfeldbruck"},"storeCoordinates":{"latitude":48.1780768,"longitude":11.2549451}},{"storeLogo":"Mueller","storeName":"Weingarten","storeAddress":{"street":"Karlstr.","number":"3-5","zipCode":"88250","city":"Weingarten"},"storeCoordinates":{"latitude":47.8075649,"longitude":9.6416802}},{"storeLogo":"Mueller","storeName":"Augsburg Bahnhofstraße","storeAddress":{"street":"Bahnhofstr.","number":"29","zipCode":"86150","city":"Augsburg"},"storeCoordinates":{"latitude":48.36565940000001,"longitude":10.8886315}},{"storeLogo":"Mueller","storeName":"Sonthofen Bahnhofstraße","storeAddress":{"street":"Bahnhofstr.","number":"15","zipCode":"87527","city":"Sonthofen"},"storeCoordinates":{"latitude":47.512,"longitude":10.2770146}},{"storeLogo":"Mueller","storeName":"Nürnberg Königstrasse","storeAddress":{"street":"Königstr.","number":"26","zipCode":"90402","city":"Nürnberg"},"storeCoordinates":{"latitude":49.4505983,"longitude":11.077291}},{"storeLogo":"Mueller","storeName":"Calw","storeAddress":{"street":"Lederstr.","number":"16-20","zipCode":"75365","city":"Calw"},"storeCoordinates":{"latitude":48.7148068,"longitude":8.7400163}},{"storeLogo":"Mueller","storeName":"Deggendorf","storeAddress":{"street":"Michael-Fischer-Platz","number":"3-5","zipCode":"94469","city":"Deggendorf"},"storeCoordinates":{"latitude":48.8313168,"longitude":12.9625645}},{"storeLogo":"Mueller","storeName":"Kaufbeuren Schmiedgasse","storeAddress":{"street":"Schmiedgasse","number":"11","zipCode":"87600","city":"Kaufbeuren"},"storeCoordinates":{"latitude":47.8810504,"longitude":10.6184908}},{"storeLogo":"Mueller","storeName":"Nürnberg Gostenhof","storeAddress":{"street":"Fürther Str.","number":"41","zipCode":"90429","city":"Nürnberg"},"storeCoordinates":{"latitude":49.4500904,"longitude":11.0575842}},{"storeLogo":"Mueller","storeName":"Freiburg Auf der Zinnen","storeAddress":{"street":"Auf der Zinnen","number":"1","zipCode":"79098","city":"Freiburg"},"storeCoordinates":{"latitude":47.9974735,"longitude":7.8541639}},{"storeLogo":"Mueller","storeName":"Rosenheim","storeAddress":{"street":"Kufsteiner Str.","number":"7","zipCode":"83022","city":"Rosenheim"},"storeCoordinates":{"latitude":47.8531371,"longitude":12.1266048}},{"storeLogo":"Mueller","storeName":"Bad Tölz Marktstraße 36","storeAddress":{"street":"Marktstr.","number":"36","zipCode":"83646","city":"Bad Tölz"},"storeCoordinates":{"latitude":47.76083,"longitude":11.56009}},{"storeLogo":"Mueller","storeName":"Traunstein Maxplatz","storeAddress":{"street":"Maxplatz","number":"7","zipCode":"83278","city":"Traunstein"},"storeCoordinates":{"latitude":47.8689244,"longitude":12.6458288}},{"storeLogo":"Mueller","storeName":"Waldkraiburg","storeAddress":{"street":"Am Stadtplatz","number":"12","zipCode":"84478","city":"Waldkraiburg"},"storeCoordinates":{"latitude":48.20717880000001,"longitude":12.4016293}},{"storeLogo":"Mueller","storeName":"München Schleissheimerstraße","storeAddress":{"street":"Schleißheimer Str.","number":"131","zipCode":"80797","city":"München"},"storeCoordinates":{"latitude":48.1632939,"longitude":11.5637063}},{"storeLogo":"Mueller","storeName":"Schwetzingen","storeAddress":{"street":"Mannheimer Str.","number":"42 - 44","zipCode":"68723","city":"Schwetzingen"},"storeCoordinates":{"latitude":49.3871756,"longitude":8.572679599999999}},{"storeLogo":"Mueller","storeName":"Aalen","storeAddress":{"street":"Friedhofstr.","number":"1","zipCode":"73430","city":"Aalen"},"storeCoordinates":{"latitude":48.83724220000001,"longitude":10.0916078}},{"storeLogo":"Mueller","storeName":"Regensburg Weiße-Lilien-Straße","storeAddress":{"street":"Weiße-Lilien-Str.","number":"13","zipCode":"93047","city":"Regensburg"},"storeCoordinates":{"latitude":49.0170399,"longitude":12.0983907}},{"storeLogo":"Mueller","storeName":"Bayreuth Maximilianstraße","storeAddress":{"street":"Maximilianstr.","number":"36","zipCode":"95444","city":"Bayreuth"},"storeCoordinates":{"latitude":49.94491,"longitude":11.57429}},{"storeLogo":"Mueller","storeName":"Wangen","storeAddress":{"street":"Bindstr.","number":"24","zipCode":"88239","city":"Wangen"},"storeCoordinates":{"latitude":47.6863232,"longitude":9.835161399999999}},{"storeLogo":"Mueller","storeName":"Friedrichshafen","storeAddress":{"street":"Wilhelmstr.","number":"31","zipCode":"88045","city":"Friedrichshafen"},"storeCoordinates":{"latitude":47.65159000000001,"longitude":9.48081}},{"storeLogo":"Mueller","storeName":"Mindelheim","storeAddress":{"street":"Maximilianstr.","number":"4 - 6","zipCode":"87719","city":"Mindelheim"},"storeCoordinates":{"latitude":48.0469848,"longitude":10.4900406}},{"storeLogo":"Mueller","storeName":"Bad Homburg","storeAddress":{"street":"Louisenstr.","number":"80 - 82","zipCode":"61348","city":"Bad Homburg"},"storeCoordinates":{"latitude":50.2255276,"longitude":8.6199355}},{"storeLogo":"Mueller","storeName":"Geislingen","storeAddress":{"street":"Stuttgarter Str.","number":"72","zipCode":"73312","city":"Geislingen"},"storeCoordinates":{"latitude":48.6250332,"longitude":9.827632099999999}},{"storeLogo":"Mueller","storeName":"Neumarkt","storeAddress":{"street":"Obere Marktstr.","number":"51","zipCode":"92318","city":"Neumarkt/Oberpfalz"},"storeCoordinates":{"latitude":49.2776726,"longitude":11.4606722}},{"storeLogo":"Mueller","storeName":"Straubing Ludwigsplatz","storeAddress":{"street":"Ludwigsplatz","number":"14/16","zipCode":"94315","city":"Straubing"},"storeCoordinates":{"latitude":48.8815909,"longitude":12.5703932}},{"storeLogo":"Mueller","storeName":"Esslingen","storeAddress":{"street":"Pliensaustr.","number":"31","zipCode":"73728","city":"Esslingen"},"storeCoordinates":{"latitude":48.73888179999999,"longitude":9.3049261}},{"storeLogo":"Mueller","storeName":"München Elisenhof","storeAddress":{"street":"Prielmayerstr.","number":"3","zipCode":"80335","city":"München"},"storeCoordinates":{"latitude":48.140981,"longitude":11.5618846}},{"storeLogo":"Mueller","storeName":"Villingen","storeAddress":{"street":"Rietstr.","number":"5","zipCode":"78050","city":"Villingen"},"storeCoordinates":{"latitude":48.0595663,"longitude":8.459377}},{"storeLogo":"Mueller","storeName":"Aschaffenburg City Galerie","storeAddress":{"street":"Fabrikstr.","number":"1B","zipCode":"63739","city":"Aschaffenburg"},"storeCoordinates":{"latitude":49.9779213,"longitude":9.1517012}},{"storeLogo":"Mueller","storeName":"Schweinfurt","storeAddress":{"street":"Spitalstr.","number":"9","zipCode":"97421","city":"Schweinfurt"},"storeCoordinates":{"latitude":50.04414879999999,"longitude":10.2339472}},{"storeLogo":"Mueller","storeName":"München Tal","storeAddress":{"street":"Tal","number":"23 - 25","zipCode":"80331","city":"München"},"storeCoordinates":{"latitude":48.1359237,"longitude":11.5802662}},{"storeLogo":"Mueller","storeName":"Wiesloch","storeAddress":{"street":"Hauptstr.","number":"80","zipCode":"69168","city":"Wiesloch"},"storeCoordinates":{"latitude":49.2953276,"longitude":8.6997552}},{"storeLogo":"Mueller","storeName":"Ellwangen","storeAddress":{"street":"Aalener Str.","number":"1","zipCode":"73479","city":"Ellwangen"},"storeCoordinates":{"latitude":48.961052,"longitude":10.1297872}},{"storeLogo":"Mueller","storeName":"Bad Mergentheim","storeAddress":{"street":"Burgstr.","number":"13-15","zipCode":"97980","city":"Bad Mergentheim"},"storeCoordinates":{"latitude":49.49113,"longitude":9.7742992}},{"storeLogo":"Mueller","storeName":"Augsburg Karolinenstraße","storeAddress":{"street":"Karolinenstr.","number":"12 - 14","zipCode":"86150","city":"Augsburg"},"storeCoordinates":{"latitude":48.3699743,"longitude":10.8983405}},{"storeLogo":"Mueller","storeName":"Weinheim","storeAddress":{"street":"Hauptstr.","number":"100","zipCode":"69469","city":"Weinheim"},"storeCoordinates":{"latitude":49.5482103,"longitude":8.672309799999999}},{"storeLogo":"Mueller","storeName":"Ulm Hirschstraße","storeAddress":{"street":"Hirschstr.","number":"17 - 19","zipCode":"89073","city":"Ulm"},"storeCoordinates":{"latitude":48.3981941,"longitude":9.988069399999999}},{"storeLogo":"Mueller","storeName":"Nagold","storeAddress":{"street":"Marktstr.","number":"28","zipCode":"72202","city":"Nagold"},"storeCoordinates":{"latitude":48.5515804,"longitude":8.7230704}},{"storeLogo":"Mueller","storeName":"Penzberg","storeAddress":{"street":"Karlstr.","number":"28","zipCode":"82377","city":"Penzberg"},"storeCoordinates":{"latitude":47.7523565,"longitude":11.3756598}},{"storeLogo":"Mueller","storeName":"Kaiserslautern","storeAddress":{"street":"Eisenbahnstr.","number":"21 - 25","zipCode":"67655","city":"Kaiserslautern"},"storeCoordinates":{"latitude":49.4416941,"longitude":7.771367199999998}},{"storeLogo":"Mueller","storeName":"Passau Wittgasse","storeAddress":{"street":"Wittgasse","number":"3","zipCode":"94032","city":"Passau"},"storeCoordinates":{"latitude":48.5750588,"longitude":13.4595145}},{"storeLogo":"Mueller","storeName":"Sinsheim","storeAddress":{"street":"Bahnhofstr.","number":"25","zipCode":"74889","city":"Sinsheim"},"storeCoordinates":{"latitude":49.25177040000001,"longitude":8.876269899999999}},{"storeLogo":"Mueller","storeName":"Vöhringen","storeAddress":{"street":"Industriestr.","number":"31","zipCode":"89269","city":"Vöhringen"},"storeCoordinates":{"latitude":48.2866051,"longitude":10.0785764}},{"storeLogo":"Mueller","storeName":"Freilassing","storeAddress":{"street":"Hauptstr.","number":"11-13","zipCode":"83395","city":"Freilassing"},"storeCoordinates":{"latitude":47.8396134,"longitude":12.9819603}},{"storeLogo":"Mueller","storeName":"Bad Neustadt/Saale","storeAddress":{"street":"Marktplatz","number":"31","zipCode":"97616","city":"Bad Neustadt"},"storeCoordinates":{"latitude":50.3229433,"longitude":10.2152131}},{"storeLogo":"Mueller","storeName":"Eislingen","storeAddress":{"street":"Hauptstr.","number":"56 - 58","zipCode":"73054","city":"Eislingen/Fils"},"storeCoordinates":{"latitude":48.6993121,"longitude":9.7073494}},{"storeLogo":"Mueller","storeName":"Furtwangen","storeAddress":{"street":"Bismarckstr.","number":"2","zipCode":"78120","city":"Furtwangen"},"storeCoordinates":{"latitude":48.0518089,"longitude":8.2055293}},{"storeLogo":"Mueller","storeName":"Tauberbischofsheim","storeAddress":{"street":"Hauptstr.","number":"23","zipCode":"97941","city":"Tauberbischofsheim"},"storeCoordinates":{"latitude":49.6228525,"longitude":9.6638906}},{"storeLogo":"Mueller","storeName":"Laichingen","storeAddress":{"street":"Bahnhofstr.","number":"9-11","zipCode":"89150","city":"Laichingen"},"storeCoordinates":{"latitude":48.4896483,"longitude":9.6881041}},{"storeLogo":"Mueller","storeName":"Gotha","storeAddress":{"street":"Jüdenstr.","number":"14-18","zipCode":"99867","city":"Gotha"},"storeCoordinates":{"latitude":50.948183,"longitude":10.7007795}},{"storeLogo":"Mueller","storeName":"Homburg/Saar","storeAddress":{"street":"Talstraße","number":"29","zipCode":"66424","city":"Homburg/Saar"},"storeCoordinates":{"latitude":49.322781,"longitude":7.339920999999999}},{"storeLogo":"Mueller","storeName":"Biberach","storeAddress":{"street":"Marktplatz","number":"26","zipCode":"88400","city":"Biberach"},"storeCoordinates":{"latitude":48.0978258,"longitude":9.7871378}},{"storeLogo":"Mueller","storeName":"Weiden","storeAddress":{"street":"Max-Reger-Str.","number":"16","zipCode":"92637","city":"Weiden"},"storeCoordinates":{"latitude":49.6743359,"longitude":12.1574112}},{"storeLogo":"Mueller","storeName":"Schwandorf","storeAddress":{"street":"Breite Str.","number":"15","zipCode":"92421","city":"Schwandorf"},"storeCoordinates":{"latitude":49.328971,"longitude":12.1063303}},{"storeLogo":"Mueller","storeName":"Starnberg","storeAddress":{"street":"Josef-Jägerhuber-Str.","number":"7","zipCode":"82319","city":"Starnberg"},"storeCoordinates":{"latitude":48.0010102,"longitude":11.3442167}},{"storeLogo":"Mueller","storeName":"Mittenwald","storeAddress":{"street":"Dekan-Karl-Platz","number":"1-3","zipCode":"82481","city":"Mittenwald"},"storeCoordinates":{"latitude":47.4396611,"longitude":11.2608102}},{"storeLogo":"Mueller","storeName":"Ulm Frauenstraße","storeAddress":{"street":"Frauenstr.","number":"51","zipCode":"89073","city":"Ulm"},"storeCoordinates":{"latitude":48.4013559,"longitude":9.996545}},{"storeLogo":"Mueller","storeName":"Tübingen","storeAddress":{"street":"Friedrichstr.","number":"7","zipCode":"72072","city":"Tübingen"},"storeCoordinates":{"latitude":48.5178397,"longitude":9.0595466}},{"storeLogo":"Mueller","storeName":"Landau/Pfalz","storeAddress":{"street":"Kronstr.","number":"6","zipCode":"76829","city":"Landau"},"storeCoordinates":{"latitude":49.1983472,"longitude":8.1129073}},{"storeLogo":"Mueller","storeName":"Koblenz","storeAddress":{"street":"Altlöhrtor","number":"9 - 11","zipCode":"56068","city":"Koblenz"},"storeCoordinates":{"latitude":50.3587383,"longitude":7.5939317}},{"storeLogo":"Mueller","storeName":"Hof","storeAddress":{"street":"Lorenzstr.","number":"25 - 29","zipCode":"95028","city":"Hof"},"storeCoordinates":{"latitude":50.3158257,"longitude":11.9165977}},{"storeLogo":"Mueller","storeName":"Schorndorf","storeAddress":{"street":"Marktplatz","number":"18-20","zipCode":"73614","city":"Schorndorf"},"storeCoordinates":{"latitude":48.8059441,"longitude":9.5275698}},{"storeLogo":"Mueller","storeName":"Tuttlingen","storeAddress":{"street":"Bahnhofstr.3/Helfereistr.","number":"9-11","zipCode":"78532","city":"Tuttlingen"},"storeCoordinates":{"latitude":47.98397,"longitude":8.8179099}},{"storeLogo":"Mueller","storeName":"Münsingen","storeAddress":{"street":"Lichtensteinstr.","number":"36","zipCode":"72525","city":"Münsingen"},"storeCoordinates":{"latitude":48.4140822,"longitude":9.488067}},{"storeLogo":"Mueller","storeName":"Ingolstadt West Park","storeAddress":{"street":"Am Westpark","number":"6","zipCode":"85057","city":"Ingolstadt"},"storeCoordinates":{"latitude":48.7741962,"longitude":11.3903524}},{"storeLogo":"Mueller","storeName":"Mosbach Pfalzgraf-Otto-Strasse","storeAddress":{"street":"Pfalzgraf-Otto-Str.","number":"54","zipCode":"74821","city":"Mosbach"},"storeCoordinates":{"latitude":49.3415312,"longitude":9.126081}},{"storeLogo":"Mueller","storeName":"Bad Dürkheim","storeAddress":{"street":"Weinstraße  Süd","number":"17 - 19","zipCode":"67098","city":"Bad Dürkheim"},"storeCoordinates":{"latitude":49.4594451,"longitude":8.169075}},{"storeLogo":"Mueller","storeName":"Herrenberg","storeAddress":{"street":"Bronntor","number":"1","zipCode":"71083","city":"Herrenberg"},"storeCoordinates":{"latitude":48.5961359,"longitude":8.867991199999999}},{"storeLogo":"Mueller","storeName":"Marktheidenfeld","storeAddress":{"street":"Marktplatz","number":"4","zipCode":"97828","city":"Marktheidenfeld"},"storeCoordinates":{"latitude":49.843633,"longitude":9.6007201}},{"storeLogo":"Mueller","storeName":"Coburg","storeAddress":{"street":"Spitalgasse","number":"3","zipCode":"96450","city":"Coburg"},"storeCoordinates":{"latitude":50.2589333,"longitude":10.964321}},{"storeLogo":"Mueller","storeName":"Göppingen B10 Center","storeAddress":{"street":"Esslinger Str.","number":"1","zipCode":"73037","city":"Göppingen"},"storeCoordinates":{"latitude":48.6974363,"longitude":9.6782042}},{"storeLogo":"Mueller","storeName":"Neustadt/Weinstraße","storeAddress":{"street":"Hauptstr.","number":"41-43","zipCode":"67433","city":"Neustadt / Weinstraße"},"storeCoordinates":{"latitude":49.3516008,"longitude":8.1366981}},{"storeLogo":"Mueller","storeName":"Pirmasens","storeAddress":{"street":"Hauptstr.","number":"38","zipCode":"66953","city":"Pirmasens"},"storeCoordinates":{"latitude":49.19952809999999,"longitude":7.6042102}},{"storeLogo":"Mueller","storeName":"Bayreuth Rotmain-Center","storeAddress":{"street":"Hohenzollernring","number":"58","zipCode":"95444","city":"Bayreuth"},"storeCoordinates":{"latitude":49.9454597,"longitude":11.5698002}},{"storeLogo":"Mueller","storeName":"Ansbach Brücken-Center","storeAddress":{"street":"Residenzstr.","number":"2-6","zipCode":"91522","city":"Ansbach"},"storeCoordinates":{"latitude":49.3059008,"longitude":10.5695673}},{"storeLogo":"Mueller","storeName":"Bad Kreuznach","storeAddress":{"street":"Kreuzstr.","number":"24","zipCode":"55543","city":"Bad Kreuznach"},"storeCoordinates":{"latitude":49.8439576,"longitude":7.8604455}},{"storeLogo":"Mueller","storeName":"Ulm Blautalcenter","storeAddress":{"street":"Blaubeurerstr.","number":"95","zipCode":"89077","city":"Ulm"},"storeCoordinates":{"latitude":48.3995791,"longitude":9.9610431}},{"storeLogo":"Mueller","storeName":"Bad Windsheim","storeAddress":{"street":"Kegetstr.","number":"3","zipCode":"91438","city":"Bad Windsheim"},"storeCoordinates":{"latitude":49.50195799999999,"longitude":10.4178367}},{"storeLogo":"Mueller","storeName":"Stuttgart Vaihingen","storeAddress":{"street":"Herrenberger Str.","number":"4","zipCode":"70563","city":"Stuttgart-Vaihingen"},"storeCoordinates":{"latitude":48.7294274,"longitude":9.1122859}},{"storeLogo":"Mueller","storeName":"Marbach","storeAddress":{"street":"Wildermuthstr.","number":"5","zipCode":"71672","city":"Marbach"},"storeCoordinates":{"latitude":48.9398038,"longitude":9.259762}},{"storeLogo":"Mueller","storeName":"Wertingen","storeAddress":{"street":"Hauptstr.","number":"2","zipCode":"86637","city":"Wertingen"},"storeCoordinates":{"latitude":48.56192679999999,"longitude":10.6822817}},{"storeLogo":"Mueller","storeName":"Herzogenaurach","storeAddress":{"street":"Hauptstr.","number":"17","zipCode":"91074","city":"Herzogenaurach"},"storeCoordinates":{"latitude":49.5681496,"longitude":10.8825855}},{"storeLogo":"Mueller","storeName":"Marktoberdorf","storeAddress":{"street":"Bahnhofstr.","number":"26","zipCode":"87616","city":"Marktoberdorf"},"storeCoordinates":{"latitude":47.7758443,"longitude":10.6133676}},{"storeLogo":"Mueller","storeName":"Marktredwitz","storeAddress":{"street":"Markt","number":"9","zipCode":"95615","city":"Marktredwitz"},"storeCoordinates":{"latitude":50.001098,"longitude":12.0843734}},{"storeLogo":"Mueller","storeName":"Lindau Lindaupark","storeAddress":{"street":"Berliner Platz - Lindaupark","number":"","zipCode":"88131","city":"Lindau"},"storeCoordinates":{"latitude":47.5538592,"longitude":9.7027216}},{"storeLogo":"Mueller","storeName":"Weilheim/Teck","storeAddress":{"street":"Lindachstr.","number":"19-21","zipCode":"73235","city":"Weilheim/Teck"},"storeCoordinates":{"latitude":48.6157062,"longitude":9.5365877}},{"storeLogo":"Mueller","storeName":"Neuwied","storeAddress":{"street":"Mittelstr.","number":"23","zipCode":"56564","city":"Neuwied"},"storeCoordinates":{"latitude":50.4283821,"longitude":7.4569986}},{"storeLogo":"Mueller","storeName":"Bopfingen","storeAddress":{"street":"Aalener Str.","number":"60","zipCode":"73441","city":"Bopfingen"},"storeCoordinates":{"latitude":48.8637636,"longitude":10.3418692}},{"storeLogo":"Mueller","storeName":"Wolfsburg","storeAddress":{"street":"Porschestr.","number":"68","zipCode":"38440","city":"Wolfsburg"},"storeCoordinates":{"latitude":52.4217323,"longitude":10.7863022}},{"storeLogo":"Mueller","storeName":"Ludwigshafen","storeAddress":{"street":"Rathausplatz","number":"21","zipCode":"67059","city":"Ludwigshafen"},"storeCoordinates":{"latitude":49.48433,"longitude":8.443389999999999}},{"storeLogo":"Mueller","storeName":"Schwabach Ludwigstraße","storeAddress":{"street":"Ludwigstr.","number":"7/9","zipCode":"91126","city":"Schwabach"},"storeCoordinates":{"latitude":49.32927,"longitude":11.02397}},{"storeLogo":"Mueller","storeName":"Rain/Lech","storeAddress":{"street":"Neuburger Str.","number":"1","zipCode":"86641","city":"Rain/Lech"},"storeCoordinates":{"latitude":48.690752,"longitude":10.9209201}},{"storeLogo":"Mueller","storeName":"Nürnberg Franken-Center","storeAddress":{"street":"Glogauer Str.","number":"36-38","zipCode":"90473","city":"Nürnberg"},"storeCoordinates":{"latitude":49.4040981,"longitude":11.1340829}},{"storeLogo":"Mueller","storeName":"Ludwigsburg Breuningerland","storeAddress":{"street":"Heinkelstr.","number":"1-11","zipCode":"71634","city":"Ludwigsburg"},"storeCoordinates":{"latitude":48.9213616,"longitude":9.1518038}},{"storeLogo":"Mueller","storeName":"Karlsruhe Kaiserstrasse","storeAddress":{"street":"Kaiserstr.","number":"169","zipCode":"76133","city":"Karlsruhe"},"storeCoordinates":{"latitude":49.00955949999999,"longitude":8.400259199999999}},{"storeLogo":"Mueller","storeName":"Osterhofen","storeAddress":{"street":"Stadtplatz","number":"16","zipCode":"94486","city":"Osterhofen"},"storeCoordinates":{"latitude":48.7022875,"longitude":13.0203644}},{"storeLogo":"Mueller","storeName":"Bad Säckingen","storeAddress":{"street":"Alte Basler Str.","number":"2","zipCode":"79713","city":"Bad Säckingen"},"storeCoordinates":{"latitude":47.5546754,"longitude":7.94752}},{"storeLogo":"Mueller","storeName":"Gelsenkirchen","storeAddress":{"street":"Bahnhofstr.","number":"55/56","zipCode":"45879","city":"Gelsenkirchen"},"storeCoordinates":{"latitude":51.5076913,"longitude":7.0992688}},{"storeLogo":"Mueller","storeName":"Wuppertal Barmen","storeAddress":{"street":"Alter Markt","number":"1","zipCode":"42275","city":"Wuppertal"},"storeCoordinates":{"latitude":51.2704096,"longitude":7.1969888}},{"storeLogo":"Mueller","storeName":"Ravensburg Adlerstraße","storeAddress":{"street":"Adlerstr.","number":"30","zipCode":"88212","city":"Ravensburg"},"storeCoordinates":{"latitude":47.782302,"longitude":9.610734700000002}},{"storeLogo":"Mueller","storeName":"Tirschenreuth","storeAddress":{"street":"Bahnhofstr.","number":"20b","zipCode":"95643","city":"Tirschenreuth"},"storeCoordinates":{"latitude":49.87944299999999,"longitude":12.3321299}},{"storeLogo":"Mueller","storeName":"Heidenheim","storeAddress":{"street":"Brenzstr. / Karlstr.","number":"","zipCode":"89518","city":"Heidenheim"},"storeCoordinates":{"latitude":48.67821989999999,"longitude":10.1520295}},{"storeLogo":"Mueller","storeName":"Lauda-Königshofen","storeAddress":{"street":"Tauberstr.","number":"6","zipCode":"97922","city":"Lauda"},"storeCoordinates":{"latitude":49.56974,"longitude":9.706349999999999}},{"storeLogo":"Mueller","storeName":"Abensberg","storeAddress":{"street":"Straubinger Str.","number":"","zipCode":"93326","city":"Abensberg"},"storeCoordinates":{"latitude":48.811085,"longitude":11.8589173}},{"storeLogo":"Mueller","storeName":"Nürnberg Mercado Center","storeAddress":{"street":"Äußere Bayreuther Str.","number":"80","zipCode":"90491","city":"Nürnberg"},"storeCoordinates":{"latitude":49.4704147,"longitude":11.102287}},{"storeLogo":"Mueller","storeName":"Neu-Isenburg Isenburg Zentrum","storeAddress":{"street":"Hermesstr.","number":"4","zipCode":"63263","city":"Neu-Isenburg"},"storeCoordinates":{"latitude":50.0487954,"longitude":8.6960074}},{"storeLogo":"Mueller","storeName":"Winnenden","storeAddress":{"street":"Adlerplatz","number":"2","zipCode":"71364","city":"Winnenden"},"storeCoordinates":{"latitude":48.87593260000001,"longitude":9.4009339}},{"storeLogo":"Mueller","storeName":"Erding","storeAddress":{"street":"Friedrich-Fischer-Str.","number":"4","zipCode":"85435","city":"Erding"},"storeCoordinates":{"latitude":48.3059301,"longitude":11.9063917}},{"storeLogo":"Mueller","storeName":"Offenburg","storeAddress":{"street":"Hauptstr.","number":"72","zipCode":"77652","city":"Offenburg"},"storeCoordinates":{"latitude":48.4709617,"longitude":7.942498800000001}},{"storeLogo":"Mueller","storeName":"Waldshut-Tiengen","storeAddress":{"street":"Hauptstr.","number":"39","zipCode":"79761","city":"Waldshut-Tiengen"},"storeCoordinates":{"latitude":47.6353745,"longitude":8.2760587}},{"storeLogo":"Mueller","storeName":"Meitingen","storeAddress":{"street":"Via Claudia","number":"3","zipCode":"86405","city":"Meitingen"},"storeCoordinates":{"latitude":48.5565776,"longitude":10.8514509}},{"storeLogo":"Mueller","storeName":"Kassel Königsplatz","storeAddress":{"street":"Königsplatz","number":"32-34","zipCode":"34117","city":"Kassel"},"storeCoordinates":{"latitude":51.3151093,"longitude":9.4975573}},{"storeLogo":"Mueller","storeName":"Neu-Ulm Augsburger Straße","storeAddress":{"street":"Augsburger Str.","number":"4-6","zipCode":"89231","city":"Neu-Ulm"},"storeCoordinates":{"latitude":48.3948851,"longitude":9.9994481}},{"storeLogo":"Mueller","storeName":"Freiburg Kaiser-Joseph-Straße","storeAddress":{"street":"Kaiser-Joseph-Str.","number":"208-212","zipCode":"79098","city":"Freiburg"},"storeCoordinates":{"latitude":47.99558,"longitude":7.849959999999999}},{"storeLogo":"Mueller","storeName":"Kempten Forum Allgäu","storeAddress":{"street":"Einkaufszentrum August-Fischer-Platz","number":"","zipCode":"87435","city":"Kempten"},"storeCoordinates":{"latitude":47.7205807,"longitude":10.3147171}},{"storeLogo":"Mueller","storeName":"Worms Kaiser Passage","storeAddress":{"street":"Am Römischen Kaiser","number":"9","zipCode":"67547","city":"Worms"},"storeCoordinates":{"latitude":49.6317608,"longitude":8.3633313}},{"storeLogo":"Mueller","storeName":"Ludwigsburg Wilhelm Galerie","storeAddress":{"street":"Wilhelmstr.","number":"26","zipCode":"71638","city":"Ludwigsburg"},"storeCoordinates":{"latitude":48.8972225,"longitude":9.187865}},{"storeLogo":"Mueller","storeName":"Markdorf","storeAddress":{"street":"Hauptstr.","number":"32","zipCode":"88677","city":"Markdorf"},"storeCoordinates":{"latitude":47.7218564,"longitude":9.3861771}},{"storeLogo":"Mueller","storeName":"Fulda Kaiserwiesen","storeAddress":{"street":"Keltenstr.","number":"20","zipCode":"36043","city":"Fulda"},"storeCoordinates":{"latitude":50.530371,"longitude":9.6907905}},{"storeLogo":"Mueller","storeName":"Ochsenhausen","storeAddress":{"street":"Am Güterbahnhof","number":"8","zipCode":"88416","city":"Ochsenhausen"},"storeCoordinates":{"latitude":48.0745088,"longitude":9.9469716}},{"storeLogo":"Mueller","storeName":"Feuchtwangen","storeAddress":{"street":"Dinkelsbühler Str.","number":"20","zipCode":"91555","city":"Feuchtwangen"},"storeCoordinates":{"latitude":49.1647188,"longitude":10.3259622}},{"storeLogo":"Mueller","storeName":"Hassfurt","storeAddress":{"street":"Zeilerstr.","number":"14","zipCode":"97437","city":"Hassfurt"},"storeCoordinates":{"latitude":50.0302089,"longitude":10.5217374}},{"storeLogo":"Mueller","storeName":"München Riem Arcaden","storeAddress":{"street":"Willy Brandt Platz","number":"5","zipCode":"81829","city":"München"},"storeCoordinates":{"latitude":48.1322825,"longitude":11.6911359}},{"storeLogo":"Mueller","storeName":"Bad Wildungen","storeAddress":{"street":"Breiter Hagen","number":"6","zipCode":"34537","city":"Bad Wildungen"},"storeCoordinates":{"latitude":51.1194363,"longitude":9.119796}},{"storeLogo":"Mueller","storeName":"Blaubeuren","storeAddress":{"street":"Württemberger Str.","number":"6","zipCode":"89143","city":"Blaubeuren"},"storeCoordinates":{"latitude":48.4031435,"longitude":9.790925099999999}},{"storeLogo":"Mueller","storeName":"Landsberg / Lech Augsburger Straße","storeAddress":{"street":"Augsburger Straße","number":"","zipCode":"86899","city":"Landsberg/Lech"},"storeCoordinates":{"latitude":48.0647342,"longitude":10.8657386}},{"storeLogo":"Mueller","storeName":"Neuötting","storeAddress":{"street":"Simbacher Str.","number":"55","zipCode":"84524","city":"Neuötting"},"storeCoordinates":{"latitude":48.2407576,"longitude":12.709882}},{"storeLogo":"Mueller","storeName":"Stuttgart Carré Bad Cannstatt","storeAddress":{"street":"Wildunger Str.","number":"2","zipCode":"70372","city":"Bad Cannstatt"},"storeCoordinates":{"latitude":48.8017404,"longitude":9.2207866}},{"storeLogo":"Mueller","storeName":"Rottach-Egern","storeAddress":{"street":"Ludwig-Thoma-Str.","number":"4","zipCode":"83700","city":"Rottach-Egern"},"storeCoordinates":{"latitude":47.6909664,"longitude":11.7716496}},{"storeLogo":"Mueller","storeName":"Bad Waldsee","storeAddress":{"street":"Im Ballenmoos","number":"2/1","zipCode":"88339","city":"Bad Waldsee"},"storeCoordinates":{"latitude":47.91435999999999,"longitude":9.743979999999999}},{"storeLogo":"Mueller","storeName":"Pforzheim Schlössle Galerie","storeAddress":{"street":"Westliche Karl Friedrich Str.","number":"80","zipCode":"75173","city":"Pforzheim"},"storeCoordinates":{"latitude":48.8920506,"longitude":8.6967912}},{"storeLogo":"Mueller","storeName":"Bonndorf","storeAddress":{"street":"Martinstr.","number":"54","zipCode":"79848","city":"Bonndorf"},"storeCoordinates":{"latitude":47.81805629999999,"longitude":8.3373194}},{"storeLogo":"Mueller","storeName":"Bobingen","storeAddress":{"street":"Königsbrunner Str.","number":"5","zipCode":"86399","city":"Bobingen"},"storeCoordinates":{"latitude":48.2655045,"longitude":10.839153}},{"storeLogo":"Mueller","storeName":"Passau Bahnhofstraße","storeAddress":{"street":"Bahnhofstr.","number":"14","zipCode":"94032","city":"Passau"},"storeCoordinates":{"latitude":48.5746876,"longitude":13.4540668}},{"storeLogo":"Mueller","storeName":"Bergisch Gladbach Rhein Berg Galerie","storeAddress":{"street":"Hauptstr.","number":"131","zipCode":"51465","city":"Bergisch Gladbach"},"storeCoordinates":{"latitude":50.9903796,"longitude":7.1243536}},{"storeLogo":"Mueller","storeName":"Cham","storeAddress":{"street":"Rodinger Str.","number":"3","zipCode":"93413","city":"Cham"},"storeCoordinates":{"latitude":49.2020839,"longitude":12.6582377}},{"storeLogo":"Mueller","storeName":"Trossingen","storeAddress":{"street":"Ch.-Messner-Str.","number":"13","zipCode":"78647","city":"Trossingen"},"storeCoordinates":{"latitude":48.0717136,"longitude":8.6298183}},{"storeLogo":"Mueller","storeName":"Donzdorf","storeAddress":{"street":"Mozartstr.","number":"35","zipCode":"73072","city":"Donzdorf"},"storeCoordinates":{"latitude":48.6851515,"longitude":9.796541099999999}},{"storeLogo":"Mueller","storeName":"Schwabach Rotherstraße","storeAddress":{"street":"Alte Rotherstr.","number":"1-3","zipCode":"91126","city":"Schwabach"},"storeCoordinates":{"latitude":49.3235779,"longitude":11.0374339}},{"storeLogo":"Mueller","storeName":"Maxhütte-Haidhof","storeAddress":{"street":"Nordgaustr.","number":"4","zipCode":"93142","city":"Maxhütte-Haidhof"},"storeCoordinates":{"latitude":49.1921307,"longitude":12.0998122}},{"storeLogo":"Mueller","storeName":"Baden-Baden Shopping Cité","storeAddress":{"street":"Gewerbepark Cité","number":"7","zipCode":"76532","city":"Baden-Baden"},"storeCoordinates":{"latitude":48.7821895,"longitude":8.191105}},{"storeLogo":"Mueller","storeName":"Olpe","storeAddress":{"street":"Kölner Str.","number":"7","zipCode":"57462","city":"Olpe"},"storeCoordinates":{"latitude":51.02881259999999,"longitude":7.8437868}},{"storeLogo":"Mueller","storeName":"Stadtbergen","storeAddress":{"street":"Benzstraße","number":"8","zipCode":"86391","city":"Stadtbergen"},"storeCoordinates":{"latitude":48.3763341,"longitude":10.8481962}},{"storeLogo":"Mueller","storeName":"Hallstadt im market Einkaufszentrum","storeAddress":{"street":"Michelinstr.","number":"142","zipCode":"96103","city":"Hallstadt"},"storeCoordinates":{"latitude":49.9233039,"longitude":10.89472}},{"storeLogo":"Mueller","storeName":"Weil / Rhein Hauptstraße 335","storeAddress":{"street":"Hauptstr.","number":"335","zipCode":"79576","city":"Weil am Rhein"},"storeCoordinates":{"latitude":47.5923202,"longitude":7.609239799999999}},{"storeLogo":"Mueller","storeName":"Lörrach","storeAddress":{"street":"Tumringer Str.","number":"175-177","zipCode":"79539","city":"Lörrach"},"storeCoordinates":{"latitude":47.61228999999999,"longitude":7.660740000000001}},{"storeLogo":"Mueller","storeName":"Stuttgart Königstraße","storeAddress":{"street":"Königstr.","number":"5","zipCode":"70173","city":"Stuttgart"},"storeCoordinates":{"latitude":48.7800082,"longitude":9.1804286}},{"storeLogo":"Mueller","storeName":"Schwenningen City Rondell Einkaufszentrum","storeAddress":{"street":"Kronenstr.","number":"21","zipCode":"78054","city":"VS-Schwenningen"},"storeCoordinates":{"latitude":48.0633294,"longitude":8.534011999999999}},{"storeLogo":"Mueller","storeName":"Bad Endorf","storeAddress":{"street":"Bahnhofstr.","number":"8","zipCode":"83093","city":"Bad Endorf"},"storeCoordinates":{"latitude":47.9073722,"longitude":12.2988746}},{"storeLogo":"Mueller","storeName":"Sonthofen Rudolf-Diesel-Straße","storeAddress":{"street":"Rudolf-Diesel-Str.","number":"7","zipCode":"87527","city":"Sonthofen"},"storeCoordinates":{"latitude":47.5217752,"longitude":10.2704561}},{"storeLogo":"Mueller","storeName":"Bad Reichenhall","storeAddress":{"street":"Ludwigstr.","number":"23","zipCode":"83435","city":"Bad Reichenhall"},"storeCoordinates":{"latitude":47.7241765,"longitude":12.8783433}},{"storeLogo":"Mueller","storeName":"Illertissen","storeAddress":{"street":"Ulmer Str.","number":"4","zipCode":"89257","city":"Illertissen"},"storeCoordinates":{"latitude":48.223233,"longitude":10.1032464}},{"storeLogo":"Mueller","storeName":"Rottenburg/Laaber","storeAddress":{"street":"Landshuter Str.","number":"86","zipCode":"84056","city":"Rottenburg/Laaber"},"storeCoordinates":{"latitude":48.6919526,"longitude":12.0271306}},{"storeLogo":"Mueller","storeName":"Lampertheim","storeAddress":{"street":"Industriestr.","number":"14","zipCode":"68623","city":"Lampertheim"},"storeCoordinates":{"latitude":49.5972119,"longitude":8.4818327}},{"storeLogo":"Mueller","storeName":"Laufenburg","storeAddress":{"street":"Laufenpark","number":"8","zipCode":"79725","city":"Laufenburg"},"storeCoordinates":{"latitude":47.5642266,"longitude":8.0743121}},{"storeLogo":"Mueller","storeName":"Neresheim","storeAddress":{"street":"Heidenheimerstr.","number":"36","zipCode":"73450","city":"Neresheim"},"storeCoordinates":{"latitude":48.7556506,"longitude":10.3198574}},{"storeLogo":"Mueller","storeName":"Olching","storeAddress":{"street":"Feursstr.","number":"56","zipCode":"82140","city":"Olching"},"storeCoordinates":{"latitude":48.2157929,"longitude":11.3474697}},{"storeLogo":"Mueller","storeName":"Miesbach Wallenburger Straße","storeAddress":{"street":"Wallenburger Str.","number":"1","zipCode":"83714","city":"Miesbach"},"storeCoordinates":{"latitude":47.7917278,"longitude":11.8317888}},{"storeLogo":"Mueller","storeName":"Landau/Isar","storeAddress":{"street":"Alte Umgehungsstr.","number":"19","zipCode":"94405","city":"Landau/Isar"},"storeCoordinates":{"latitude":48.6701592,"longitude":12.6879842}},{"storeLogo":"Mueller","storeName":"Pfullendorf","storeAddress":{"street":"St. Katharinenstr.","number":"1/1","zipCode":"88630","city":"Pfullendorf"},"storeCoordinates":{"latitude":47.9247862,"longitude":9.2502556}},{"storeLogo":"Mueller","storeName":"Ettlingen","storeAddress":{"street":"Neuer Markt","number":"4","zipCode":"76275","city":"Ettlingen"},"storeCoordinates":{"latitude":48.9418217,"longitude":8.4064817}},{"storeLogo":"Mueller","storeName":"Augsburg Göggingen","storeAddress":{"street":"Eichleitnerstr.","number":"3","zipCode":"86199","city":"Augsburg"},"storeCoordinates":{"latitude":48.3460724,"longitude":10.8852763}},{"storeLogo":"Mueller","storeName":"Kitzingen","storeAddress":{"street":"Siegfried-Wilke-Str.","number":"4","zipCode":"97318","city":"Kitzingen"},"storeCoordinates":{"latitude":49.7400555,"longitude":10.1496317}},{"storeLogo":"Mueller","storeName":"Emden","storeAddress":{"street":"Ubierstr.","number":"2a","zipCode":"26723","city":"Emden"},"storeCoordinates":{"latitude":53.36759,"longitude":7.191859999999999}},{"storeLogo":"Mueller","storeName":"Augsburg Oberhausen","storeAddress":{"street":"Donauwörther Str.","number":"110 b","zipCode":"86154","city":"Augsburg"},"storeCoordinates":{"latitude":48.3894288,"longitude":10.8824461}},{"storeLogo":"Mueller","storeName":"Wörth am Rhein Maximilian Center","storeAddress":{"street":"Maximilianstr.","number":"1","zipCode":"76744","city":"Wörth am Rhein"},"storeCoordinates":{"latitude":49.0407594,"longitude":8.2950388}},{"storeLogo":"Mueller","storeName":"Verden / Aller","storeAddress":{"street":"Grosse Str.","number":"88","zipCode":"27283","city":"Verden / Aller"},"storeCoordinates":{"latitude":52.9198278,"longitude":9.2284483}},{"storeLogo":"Mueller","storeName":"Göppingen - Schulstraße","storeAddress":{"street":"Schulstr.","number":"9","zipCode":"73033","city":"Göppingen"},"storeCoordinates":{"latitude":48.7029773,"longitude":9.6534959}},{"storeLogo":"Mueller","storeName":"Jever","storeAddress":{"street":"Mühlenstr.","number":"72","zipCode":"26441","city":"Jever"},"storeCoordinates":{"latitude":53.56167319999999,"longitude":7.912893400000001}},{"storeLogo":"Mueller","storeName":"Rhauderfehn","storeAddress":{"street":"Rhauderwieke","number":"5","zipCode":"26817","city":"Rhauderfehn"},"storeCoordinates":{"latitude":53.1367606,"longitude":7.5701567}},{"storeLogo":"Mueller","storeName":"Schlitz","storeAddress":{"street":"Bahnhofstr.","number":"52","zipCode":"36110","city":"Schlitz"},"storeCoordinates":{"latitude":50.681615,"longitude":9.5648851}},{"storeLogo":"Mueller","storeName":"Stuttgart Hedelfingen","storeAddress":{"street":"Otto-Hirsch-Brücken","number":"17","zipCode":"70329","city":"Stuttgart-Hedelfingen"},"storeCoordinates":{"latitude":48.760943,"longitude":9.255564}},{"storeLogo":"Mueller","storeName":"Ostfildern","storeAddress":{"street":"Bonhoeffer Str.","number":"2","zipCode":"73760","city":"Ostfildern"},"storeCoordinates":{"latitude":48.72200549999999,"longitude":9.2703645}},{"storeLogo":"Mueller","storeName":"Waldshut Kaiserstraße 27-29","storeAddress":{"street":"Kaiserstr.","number":"27-29","zipCode":"79761","city":"Waldshut-Tiengen"},"storeCoordinates":{"latitude":47.6225665,"longitude":8.2131672}},{"storeLogo":"Mueller","storeName":"Hattersheim","storeAddress":{"street":"Untertorstr.","number":"11","zipCode":"65795","city":"Hattersheim"},"storeCoordinates":{"latitude":50.06665,"longitude":8.49109}},{"storeLogo":"Mueller","storeName":"Straubing Ittlinger Straße","storeAddress":{"street":"Ittlinger Str.","number":"198","zipCode":"94315","city":"Straubing"},"storeCoordinates":{"latitude":48.8836556,"longitude":12.609857}},{"storeLogo":"Mueller","storeName":"Lenningen","storeAddress":{"street":"Im Gänsacker","number":"10","zipCode":"73252","city":"Lenningen"},"storeCoordinates":{"latitude":48.5662769,"longitude":9.4560385}},{"storeLogo":"Mueller","storeName":"Mössingen","storeAddress":{"street":"Jakobstr.","number":"14","zipCode":"72116","city":"Mössingen"},"storeCoordinates":{"latitude":48.4071705,"longitude":9.0546712}},{"storeLogo":"Mueller","storeName":"Bielefeld","storeAddress":{"street":"Bahnhofstr.","number":"23","zipCode":"33602","city":"Bielefeld"},"storeCoordinates":{"latitude":52.0250542,"longitude":8.5315443}},{"storeLogo":"Mueller","storeName":"Blaustein","storeAddress":{"street":"Hummelstr.","number":"7-11","zipCode":"89134","city":"Blaustein"},"storeCoordinates":{"latitude":48.4142368,"longitude":9.92094}},{"storeLogo":"Mueller","storeName":"Waiblingen","storeAddress":{"street":"Alter Postplatz","number":"9","zipCode":"71332","city":"Waiblingen"},"storeCoordinates":{"latitude":48.8300947,"longitude":9.3152809}},{"storeLogo":"Mueller","storeName":"Freystadt","storeAddress":{"street":"Berchinger Str.","number":"38 b","zipCode":"92342","city":"Freystadt"},"storeCoordinates":{"latitude":49.1934681,"longitude":11.3339274}},{"storeLogo":"Mueller","storeName":"Oberammergau","storeAddress":{"street":"Zur Lok","number":"5","zipCode":"82487","city":"Oberammergau"},"storeCoordinates":{"latitude":47.5998455,"longitude":11.0558691}},{"storeLogo":"Mueller","storeName":"Melsungen","storeAddress":{"street":"Sparkassenplatz","number":"2","zipCode":"34212","city":"Melsungen"},"storeCoordinates":{"latitude":51.1330123,"longitude":9.542020899999999}},{"storeLogo":"Mueller","storeName":"Oldenburg Familia Einkaufsland Wechloy","storeAddress":{"street":"Posthalterweg","number":"10","zipCode":"26129","city":"Oldenburg"},"storeCoordinates":{"latitude":53.15820309999999,"longitude":8.173921199999999}},{"storeLogo":"Mueller","storeName":"Hagen","storeAddress":{"street":"Hohenzollernstr.","number":"3-11","zipCode":"58095","city":"Hagen"},"storeCoordinates":{"latitude":51.3580131,"longitude":7.4716725}},{"storeLogo":"Mueller","storeName":"Niederwerrn am Hainig","storeAddress":{"street":"Gretel-Baumbach-Str.","number":"10","zipCode":"97424","city":"Schweinfurt"},"storeCoordinates":{"latitude":50.0599723,"longitude":10.1929326}},{"storeLogo":"Mueller","storeName":"Arnsberg-Neheim","storeAddress":{"street":"Hauptstr.","number":"36","zipCode":"59755","city":"Arnsberg-Neheim"},"storeCoordinates":{"latitude":51.451427,"longitude":7.963196699999999}},{"storeLogo":"Mueller","storeName":"Garbsen","storeAddress":{"street":"Havelser Str.","number":"1","zipCode":"30823","city":"Garbsen"},"storeCoordinates":{"latitude":52.42650210000001,"longitude":9.596644999999999}},{"storeLogo":"Mueller","storeName":"Erlangen Nürnberger Straße","storeAddress":{"street":"Nürnberger Str.","number":"10","zipCode":"91052","city":"Erlangen"},"storeCoordinates":{"latitude":49.5940717,"longitude":11.0057972}},{"storeLogo":"Mueller","storeName":"Grafenau","storeAddress":{"street":"Bahnhofplatz","number":"5c","zipCode":"94481","city":"Grafenau"},"storeCoordinates":{"latitude":48.8556146,"longitude":13.3939866}},{"storeLogo":"Mueller","storeName":"Meckenbeuren","storeAddress":{"street":"Oskar-von-Miller-Platz","number":"6","zipCode":"88074","city":"Meckenbeuren"},"storeCoordinates":{"latitude":47.7002849,"longitude":9.5576482}},{"storeLogo":"Mueller","storeName":"Schrobenhausen","storeAddress":{"street":"Pöttmeser Str.","number":"6b","zipCode":"86529","city":"Schrobenhausen"},"storeCoordinates":{"latitude":48.5634289,"longitude":11.2566868}},{"storeLogo":"Mueller","storeName":"Ulm Böfingen","storeAddress":{"street":"Haslacher Weg","number":"51","zipCode":"89075","city":"Ulm"},"storeCoordinates":{"latitude":48.430161,"longitude":10.018084}},{"storeLogo":"Mueller","storeName":"Volkach","storeAddress":{"street":"Am alten Bahnhof","number":"4","zipCode":"97332","city":"Volkach"},"storeCoordinates":{"latitude":49.8624435,"longitude":10.2253509}},{"storeLogo":"Mueller","storeName":"Bamberg Maximiliansplatz","storeAddress":{"street":"Maximiliansplatz","number":"14","zipCode":"96047","city":"Bamberg"},"storeCoordinates":{"latitude":49.8944504,"longitude":10.8902795}},{"storeLogo":"Mueller","storeName":"Kelkheim","storeAddress":{"street":"Marktplatz","number":"4","zipCode":"65779","city":"Kelkheim"},"storeCoordinates":{"latitude":50.1347218,"longitude":8.4533045}},{"storeLogo":"Mueller","storeName":"Heilbronn Kiliansplatz","storeAddress":{"street":"Kilianstr.","number":"11","zipCode":"74072","city":"Heilbronn"},"storeCoordinates":{"latitude":49.14098,"longitude":9.2209}},{"storeLogo":"Mueller","storeName":"Stadtallendorf","storeAddress":{"street":"Herrenwaldstr.","number":"4a","zipCode":"35260","city":"Stadtallendorf"},"storeCoordinates":{"latitude":50.8264643,"longitude":9.0123936}},{"storeLogo":"Mueller","storeName":"Lindenberg","storeAddress":{"street":"Kreuzhofstr.","number":"1","zipCode":"88161","city":"Lindenberg"},"storeCoordinates":{"latitude":47.6028045,"longitude":9.8893965}},{"storeLogo":"Mueller","storeName":"Königstein","storeAddress":{"street":"Frankfurter Str.","number":"9","zipCode":"61462","city":"Königstein"},"storeCoordinates":{"latitude":50.1819561,"longitude":8.4703511}},{"storeLogo":"Mueller","storeName":"Aulendorf","storeAddress":{"street":"Allewindenstraße / Alte Kiesgrube","number":"7","zipCode":"88326","city":"Aulendorf"},"storeCoordinates":{"latitude":47.9481516,"longitude":9.638548900000002}},{"storeLogo":"Mueller","storeName":"Celle","storeAddress":{"street":"Zöllnerstr.","number":"44-46","zipCode":"29221","city":"Celle"},"storeCoordinates":{"latitude":52.6240476,"longitude":10.0821481}},{"storeLogo":"Mueller","storeName":"Norden","storeAddress":{"street":"Osterstr.","number":"147-149","zipCode":"26506","city":"Norden"},"storeCoordinates":{"latitude":53.5963499,"longitude":7.2084241}},{"storeLogo":"Mueller","storeName":"Taufkirchen a.d. Vils","storeAddress":{"street":"Landshuter Str.","number":"44","zipCode":"84416","city":"Taufkirchen a. d. Vils"},"storeCoordinates":{"latitude":48.3522457,"longitude":12.1288503}},{"storeLogo":"Mueller","storeName":"Frontenhausen","storeAddress":{"street":"Am Kreisverkehr","number":"10","zipCode":"84160","city":"Frontenhausen"},"storeCoordinates":{"latitude":48.5488156,"longitude":12.5445503}},{"storeLogo":"Mueller","storeName":"München Sonnenstraße","storeAddress":{"street":"Sonnenstr.","number":"2","zipCode":"80331","city":"München"},"storeCoordinates":{"latitude":48.1382152,"longitude":11.5646199}},{"storeLogo":"Mueller","storeName":"Ulm Römerstraße","storeAddress":{"street":"Römerstr.","number":"120/1","zipCode":"89077","city":"Ulm"},"storeCoordinates":{"latitude":48.3859976,"longitude":9.9653999}},{"storeLogo":"Mueller","storeName":"Aachen Elsaßstraße","storeAddress":{"street":"Elsaßstr.","number":"139","zipCode":"52068","city":"Aachen"},"storeCoordinates":{"latitude":50.77848239999999,"longitude":6.1209118}},{"storeLogo":"Mueller","storeName":"Neu-Ulm Ludwigsfeld","storeAddress":{"street":"Wegener Str.","number":"2","zipCode":"89231","city":"Neu-Ulm"},"storeCoordinates":{"latitude":48.3787311,"longitude":10.0059176}},{"storeLogo":"Mueller","storeName":"Weissenhorn","storeAddress":{"street":"Kaiser-Karl-Str.","number":"22","zipCode":"89264","city":"Weissenhorn"},"storeCoordinates":{"latitude":48.3069943,"longitude":10.1603299}},{"storeLogo":"Mueller","storeName":"Wittlich Schlossgalerie","storeAddress":{"street":"Schlossstr.","number":"5","zipCode":"54516","city":"Wittlich"},"storeCoordinates":{"latitude":49.9854698,"longitude":6.890133199999999}},{"storeLogo":"Mueller","storeName":"Bruchsal","storeAddress":{"street":"Anton-Heuchemer Str.","number":"6","zipCode":"76646","city":"Bruchsal"},"storeCoordinates":{"latitude":49.1241058,"longitude":8.5972973}},{"storeLogo":"Mueller","storeName":"Uelzen","storeAddress":{"street":"Gudesstr.","number":"13-23","zipCode":"29525","city":"Uelzen"},"storeCoordinates":{"latitude":52.9650617,"longitude":10.5623138}},{"storeLogo":"Mueller","storeName":"Lengerich","storeAddress":{"street":"Altstadt","number":"14","zipCode":"49525","city":"Lengerich"},"storeCoordinates":{"latitude":52.1903391,"longitude":7.8498527}},{"storeLogo":"Mueller","storeName":"Stockach","storeAddress":{"street":"Goethestr.","number":"1","zipCode":"78333","city":"Stockach"},"storeCoordinates":{"latitude":47.8508781,"longitude":9.0104277}},{"storeLogo":"Mueller","storeName":"Überlingen Christophstraße","storeAddress":{"street":"Christophstr.","number":"25","zipCode":"88662","city":"Überlingen"},"storeCoordinates":{"latitude":47.7678247,"longitude":9.1576867}},{"storeLogo":"Mueller","storeName":"Bocholt Shopping Arkaden","storeAddress":{"street":"Berliner Platz","number":"2","zipCode":"46395","city":"Bocholt"},"storeCoordinates":{"latitude":51.8353674,"longitude":6.6130403}},{"storeLogo":"Mueller","storeName":"Bremen Waterfront","storeAddress":{"street":"AG-Weser-Str.","number":"3","zipCode":"28237","city":"Bremen"},"storeCoordinates":{"latitude":53.1114382,"longitude":8.7482505}},{"storeLogo":"Mueller","storeName":"Peißenberg","storeAddress":{"street":"Am Holzgarten","number":"8","zipCode":"82380","city":"Peißenberg"},"storeCoordinates":{"latitude":47.78994369999999,"longitude":11.0539848}},{"storeLogo":"Mueller","storeName":"Überlingen Abigstraße","storeAddress":{"street":"Abigstr.","number":"1","zipCode":"88662","city":"Überlingen"},"storeCoordinates":{"latitude":47.775175,"longitude":9.1875781}},{"storeLogo":"Mueller","storeName":"Auerbach-Oberpfalz","storeAddress":{"street":"Novettaweg","number":"1","zipCode":"91275","city":"Auerbach"},"storeCoordinates":{"latitude":49.69486,"longitude":11.6284}},{"storeLogo":"Mueller","storeName":"Nersingen","storeAddress":{"street":"Am schwarzen Graben","number":"18","zipCode":"89278","city":"Nersingen"},"storeCoordinates":{"latitude":48.42514269999999,"longitude":10.1151689}},{"storeLogo":"Mueller","storeName":"Plochingen","storeAddress":{"street":"Am Fischbrunnen","number":"2","zipCode":"73207","city":"Plochingen"},"storeCoordinates":{"latitude":48.71060440000001,"longitude":9.4149844}},{"storeLogo":"Mueller","storeName":"Dresden Centrum Galerie","storeAddress":{"street":"Prager Str.","number":"15","zipCode":"01069","city":"Dresden"},"storeCoordinates":{"latitude":51.045518,"longitude":13.7341547}},{"storeLogo":"Mueller","storeName":"Maintal - Dörnigheim","storeAddress":{"street":"Braubachstr.","number":"18","zipCode":"63477","city":"Maintal - Dörnigheim"},"storeCoordinates":{"latitude":50.1418189,"longitude":8.832932699999999}},{"storeLogo":"Mueller","storeName":"Mering","storeAddress":{"street":"Ohmstr.","number":"2-6","zipCode":"86415","city":"Mering"},"storeCoordinates":{"latitude":48.2751455,"longitude":10.9768755}},{"storeLogo":"Mueller","storeName":"Ingelheim","storeAddress":{"street":"Binger Str.","number":"82","zipCode":"55218","city":"Ingelheim"},"storeCoordinates":{"latitude":49.974994,"longitude":8.055122}},{"storeLogo":"Mueller","storeName":"Ahrensburg City Center","storeAddress":{"street":"Klaus-Groth-Str.","number":"2-4","zipCode":"22926","city":"Ahrensburg"},"storeCoordinates":{"latitude":53.6750044,"longitude":10.2382702}},{"storeLogo":"Mueller","storeName":"Offenbach KOMM Einkaufscenter","storeAddress":{"street":"Aliceplatz","number":"11","zipCode":"63065","city":"Offenbach"},"storeCoordinates":{"latitude":50.1036406,"longitude":8.7612475}},{"storeLogo":"Mueller","storeName":"Ehingen Marktstraße","storeAddress":{"street":"Marktstr.","number":"1-3","zipCode":"89584","city":"Ehingen"},"storeCoordinates":{"latitude":48.28243,"longitude":9.72738}},{"storeLogo":"Mueller","storeName":"Bremen Kattenturmer-Heerstraße","storeAddress":{"street":"Kattenturmer-Heerstr.","number":"142","zipCode":"28277","city":"Bremen"},"storeCoordinates":{"latitude":53.0407117,"longitude":8.8159485}},{"storeLogo":"Mueller","storeName":"Bad Zwischenahn","storeAddress":{"street":"Westersteder Str.","number":"2c","zipCode":"26160","city":"Bad Zwischenahn"},"storeCoordinates":{"latitude":53.1825368,"longitude":7.996530799999999}},{"storeLogo":"Mueller","storeName":"Hofheim am Taunus Chinon Center","storeAddress":{"street":"Chinonplatz","number":"6-12","zipCode":"65719","city":"Hofheim am Taunus"},"storeCoordinates":{"latitude":50.0860284,"longitude":8.4483427}},{"storeLogo":"Mueller","storeName":"Bad Vilbel","storeAddress":{"street":"Niddaplatz","number":"3","zipCode":"61118","city":"Bad Vilbel"},"storeCoordinates":{"latitude":50.1805705,"longitude":8.7399085}},{"storeLogo":"Mueller","storeName":"Mainz","storeAddress":{"street":"Schusterstr.","number":"7","zipCode":"55116","city":"Mainz"},"storeCoordinates":{"latitude":49.99978369999999,"longitude":8.272628899999999}},{"storeLogo":"Mueller","storeName":"Friedrichsdorf Taunus-Carré","storeAddress":{"street":"Wilhelmstr.","number":"23","zipCode":"61381","city":"Friedrichsdorf"},"storeCoordinates":{"latitude":50.2546821,"longitude":8.6427885}},{"storeLogo":"Mueller","storeName":"Spardorf","storeAddress":{"street":"Alte Ziegelei","number":"2","zipCode":"91080","city":"Spardorf"},"storeCoordinates":{"latitude":49.59738,"longitude":11.056264}},{"storeLogo":"Mueller","storeName":"Kassel Leipziger Straße","storeAddress":{"street":"Leipziger Str.","number":"126-136","zipCode":"34123","city":"Kassel"},"storeCoordinates":{"latitude":51.305671,"longitude":9.5243646}},{"storeLogo":"Mueller","storeName":"Gaggenau Badisches Einkaufszentrum","storeAddress":{"street":"Hauptstr.","number":"2-4","zipCode":"76571","city":"Gaggenau"},"storeCoordinates":{"latitude":48.8054234,"longitude":8.3179543}},{"storeLogo":"Mueller","storeName":"Pforzheim Sedanplatz","storeAddress":{"street":"Dillsteiner Str.","number":"4-6","zipCode":"75173","city":"Pforzheim"},"storeCoordinates":{"latitude":48.8890974,"longitude":8.6977861}},{"storeLogo":"Mueller","storeName":"Bad Urach","storeAddress":{"street":"Seilerweg","number":"4","zipCode":"72574","city":"Bad Urach"},"storeCoordinates":{"latitude":48.4898401,"longitude":9.3995762}},{"storeLogo":"Mueller","storeName":"Brake im Famila-Center","storeAddress":{"street":"Weserstr.","number":"80","zipCode":"26919","city":"Brake"},"storeCoordinates":{"latitude":53.3330662,"longitude":8.4619795}},{"storeLogo":"Mueller","storeName":"Günzburg B.-Landmann-Platz","storeAddress":{"street":"Bürgermeister-Landmann-Platz","number":"7","zipCode":"89312","city":"Günzburg"},"storeCoordinates":{"latitude":48.4542826,"longitude":10.2783751}},{"storeLogo":"Mueller","storeName":"Warthausen","storeAddress":{"street":"Jahnstr.","number":"2","zipCode":"88447","city":"Warthausen"},"storeCoordinates":{"latitude":48.130078,"longitude":9.8007547}},{"storeLogo":"Mueller","storeName":"Lichtenfels","storeAddress":{"street":"Mainau","number":"4","zipCode":"96215","city":"Lichtenfels"},"storeCoordinates":{"latitude":50.1495386,"longitude":11.0630596}},{"storeLogo":"Mueller","storeName":"Oberstaufen Hugo-von-Königsegg-Straße","storeAddress":{"street":"Hugo-von-Königsegg-Str.","number":"18","zipCode":"87534","city":"Oberstaufen"},"storeCoordinates":{"latitude":47.5543846,"longitude":10.0189027}},{"storeLogo":"Mueller","storeName":"Hötzelsroda PEP Prima Einkaufs-Park","storeAddress":{"street":"Neue Wiese","number":"1","zipCode":"99817","city":"Hötzelsroda"},"storeCoordinates":{"latitude":50.9983979,"longitude":10.3544847}},{"storeLogo":"Mueller","storeName":"Donaueschingen -  Am Karlsgarten","storeAddress":{"street":"Am Karlsgarten","number":"1","zipCode":"78166","city":"Donaueschingen"},"storeCoordinates":{"latitude":47.949256,"longitude":8.498089499999999}},{"storeLogo":"Mueller","storeName":"Speyer","storeAddress":{"street":"Maximilianstr.","number":"34","zipCode":"67346","city":"Speyer"},"storeCoordinates":{"latitude":49.317307,"longitude":8.435186}},{"storeLogo":"Mueller","storeName":"Oldenburg Achternstraße","storeAddress":{"street":"Achternstr.","number":"9-10","zipCode":"26122","city":"Oldenburg"},"storeCoordinates":{"latitude":53.1411609,"longitude":8.2143159}},{"storeLogo":"Mueller","storeName":"Immenstadt Bahnhofstraße","storeAddress":{"street":"Bahnhofstr.","number":"32","zipCode":"87509","city":"Immenstadt"},"storeCoordinates":{"latitude":47.5596279,"longitude":10.2150986}},{"storeLogo":"Mueller","storeName":"Heinsberg","storeAddress":{"street":"Hochstr.","number":"123","zipCode":"52525","city":"Heinsberg"},"storeCoordinates":{"latitude":51.0632563,"longitude":6.0957424}},{"storeLogo":"Mueller","storeName":"Lüneburg","storeAddress":{"street":"Grapengießerstr.","number":"7","zipCode":"21335","city":"Lüneburg"},"storeCoordinates":{"latitude":53.2476022,"longitude":10.4078375}},{"storeLogo":"Mueller","storeName":"Leipzig Höfe am Brühl Einkaufszentrum","storeAddress":{"street":"Brühl","number":"1","zipCode":"04109","city":"Leipzig"},"storeCoordinates":{"latitude":51.3433777,"longitude":12.3764334}},{"storeLogo":"Mueller","storeName":"Kempten Fischerstrasse","storeAddress":{"street":"Fischerstr.","number":"2","zipCode":"87435","city":"Kempten"},"storeCoordinates":{"latitude":47.7243552,"longitude":10.316221}},{"storeLogo":"Mueller","storeName":"Lauingen Herzog-Georg-Straße","storeAddress":{"street":"Herzog - Georg - Str.","number":"58","zipCode":"89415","city":"Lauingen"},"storeCoordinates":{"latitude":48.5695329,"longitude":10.4291194}},{"storeLogo":"Mueller","storeName":"Albstadt-Ebingen","storeAddress":{"street":"Kirchengraben","number":"38-42","zipCode":"72458","city":"Albstadt-Ebingen"},"storeCoordinates":{"latitude":48.21216,"longitude":9.0267748}},{"storeLogo":"Mueller","storeName":"Altdorf","storeAddress":{"street":"Am Aicher Feld","number":"14","zipCode":"84032","city":"Altdorf"},"storeCoordinates":{"latitude":48.5661388,"longitude":12.1010212}},{"storeLogo":"Mueller","storeName":"Bad Griesbach","storeAddress":{"street":"Weghofstr.","number":"4","zipCode":"94086","city":"Bad Griesbach"},"storeCoordinates":{"latitude":48.4406399,"longitude":13.1882152}},{"storeLogo":"Mueller","storeName":"Bad Krozingen Breisgaustraße","storeAddress":{"street":"Breisgauer Str.","number":"9","zipCode":"79189","city":"Bad Krozingen"},"storeCoordinates":{"latitude":47.92144,"longitude":7.7041}},{"storeLogo":"Mueller","storeName":"Großostheim","storeAddress":{"street":"Raiffeisenstr.","number":"8","zipCode":"63762","city":"Großostheim"},"storeCoordinates":{"latitude":49.9261792,"longitude":9.082507099999999}},{"storeLogo":"Mueller","storeName":"Mannheim","storeAddress":{"street":"P3,","number":"1-3","zipCode":"68161","city":"Mannheim"},"storeCoordinates":{"latitude":49.4873494,"longitude":8.4683794}},{"storeLogo":"Mueller","storeName":"Markt Schwaben","storeAddress":{"street":"Erdinger Str.","number":"19","zipCode":"85570","city":"Markt Schwaben"},"storeCoordinates":{"latitude":48.1928877,"longitude":11.8711113}},{"storeLogo":"Mueller","storeName":"Gilching Starnberger Weg","storeAddress":{"street":"Starnberger Weg","number":"62","zipCode":"82205","city":"Gilching"},"storeCoordinates":{"latitude":48.1058382,"longitude":11.2910797}},{"storeLogo":"Mueller","storeName":"Ebersberg","storeAddress":{"street":"Altstadtpassage","number":"6 + 7","zipCode":"85560","city":"Ebersberg"},"storeCoordinates":{"latitude":48.0768595,"longitude":11.9701642}},{"storeLogo":"Mueller","storeName":"Efringen-Kirchen","storeAddress":{"street":"Im Schlöttle","number":"5","zipCode":"79588","city":"Efringen-Kirchen"},"storeCoordinates":{"latitude":47.6568517,"longitude":7.5747517}},{"storeLogo":"Mueller","storeName":"Bad Hersfeld","storeAddress":{"street":"Heinrich-von-Stephan-Str.","number":"4 c","zipCode":"36251","city":"Bad Hersfeld"},"storeCoordinates":{"latitude":50.8634482,"longitude":9.7071738}},{"storeLogo":"Mueller","storeName":"München Pasing Arcaden","storeAddress":{"street":"Bahnhofsplatz","number":"5","zipCode":"81241","city":"München"},"storeCoordinates":{"latitude":48.1415383,"longitude":11.5609042}},{"storeLogo":"Mueller","storeName":"Heidelberg Bismarckplatz","storeAddress":{"street":"Bergheimer Str.","number":"4","zipCode":"69115","city":"Heidelberg"},"storeCoordinates":{"latitude":49.4096235,"longitude":8.6925747}},{"storeLogo":"Mueller","storeName":"Troisdorf Galerie","storeAddress":{"street":"Wilhelm Hamacher Platz","number":"22","zipCode":"53840","city":"Troisdorf"},"storeCoordinates":{"latitude":50.8141438,"longitude":7.156055}},{"storeLogo":"Mueller","storeName":"Rotenburg a.d. Fulda","storeAddress":{"street":"Waldweg","number":"5","zipCode":"36199","city":"Rotenburg a.d. Fulda"},"storeCoordinates":{"latitude":50.999514,"longitude":9.7316693}},{"storeLogo":"Mueller","storeName":"Freising","storeAddress":{"street":"Weinmiller-Str.","number":"5","zipCode":"85356","city":"Freising"},"storeCoordinates":{"latitude":48.4105369,"longitude":11.748574}},{"storeLogo":"Mueller","storeName":"München OEZ","storeAddress":{"street":"Hanauer Str.","number":"68","zipCode":"80993","city":"München"},"storeCoordinates":{"latitude":48.1834097,"longitude":11.5325694}},{"storeLogo":"Mueller","storeName":"Kreuzwertheim","storeAddress":{"street":"Lengfurterstr.","number":"47a","zipCode":"97892","city":"Kreuzwertheim"},"storeCoordinates":{"latitude":49.7710935,"longitude":9.5259418}},{"storeLogo":"Mueller","storeName":"Lüdenscheid","storeAddress":{"street":"Wilhelmstr.","number":"33","zipCode":"58511","city":"Lüdenscheid"},"storeCoordinates":{"latitude":51.2157883,"longitude":7.631634399999999}},{"storeLogo":"Mueller","storeName":"Gottmadingen","storeAddress":{"street":"Hauptstr.","number":"9/1","zipCode":"78244","city":"Gottmadingen"},"storeCoordinates":{"latitude":47.7360859,"longitude":8.7726572}},{"storeLogo":"Mueller","storeName":"Friesoythe","storeAddress":{"street":"Am Hafen","number":"5","zipCode":"26169","city":"Friesoythe"},"storeCoordinates":{"latitude":53.0186992,"longitude":7.8545478}},{"storeLogo":"Mueller","storeName":"Hofheim (Unterfranken)","storeAddress":{"street":"Am Sänniggrund","number":"12","zipCode":"97461","city":"Hofheim"},"storeCoordinates":{"latitude":50.1341282,"longitude":10.5263068}},{"storeLogo":"Mueller","storeName":"Pegnitz","storeAddress":{"street":"Nürnberger Straße","number":"20 d","zipCode":"91257","city":"Pegnitz"},"storeCoordinates":{"latitude":49.7502462,"longitude":11.5384586}},{"storeLogo":"Mueller","storeName":"Unterschleißheim","storeAddress":{"street":"Landshuter Str.","number":"16","zipCode":"85716","city":"Unterschleißheim"},"storeCoordinates":{"latitude":48.2812357,"longitude":11.5647025}},{"storeLogo":"Mueller","storeName":"Erbach Erlenbachcenter","storeAddress":{"street":"Heinrich-Hammer-Str.","number":"16-16/6","zipCode":"89155","city":"Erbach"},"storeCoordinates":{"latitude":48.3254295,"longitude":9.896280599999999}},{"storeLogo":"Mueller","storeName":"Cuxhaven","storeAddress":{"street":"Brockeswalder Chaussee","number":"52","zipCode":"27474","city":"Cuxhaven"},"storeCoordinates":{"latitude":53.8602894,"longitude":8.6746416}},{"storeLogo":"Mueller","storeName":"Frankfurt - Schweizer Straße","storeAddress":{"street":"Schweizer Str.","number":"33-35","zipCode":"60594","city":"Frankfurt"},"storeCoordinates":{"latitude":50.1030905,"longitude":8.6802991}},{"storeLogo":"Mueller","storeName":"Korbach","storeAddress":{"street":"Bahnhofstr.","number":"14-16","zipCode":"34497","city":"Korbach"},"storeCoordinates":{"latitude":51.27744999999999,"longitude":8.87302}},{"storeLogo":"Mueller","storeName":"Böblingen","storeAddress":{"street":"Wolfgang-Brumme-Allee","number":"27","zipCode":"71034","city":"Böblingen"},"storeCoordinates":{"latitude":48.6883069,"longitude":9.0072132}},{"storeLogo":"Mueller","storeName":"Siegburg","storeAddress":{"street":"Holzgasse","number":"1","zipCode":"53721","city":"Siegburg"},"storeCoordinates":{"latitude":50.7975631,"longitude":7.2087466}},{"storeLogo":"Mueller","storeName":"Lenting","storeAddress":{"street":"Nürnberger Str.","number":"24","zipCode":"85101","city":"Lenting"},"storeCoordinates":{"latitude":48.8142059,"longitude":11.4612106}},{"storeLogo":"Mueller","storeName":"Viernheim Rhein-Neckar-Zentrum","storeAddress":{"street":"Robert-Schuman-Str.","number":"8","zipCode":"68519","city":"Viernheim"},"storeCoordinates":{"latitude":49.52661,"longitude":8.5650966}},{"storeLogo":"Mueller","storeName":"Rastatt","storeAddress":{"street":"Bahnhofstr.","number":"2-4","zipCode":"76437","city":"Rastatt"},"storeCoordinates":{"latitude":48.8580153,"longitude":8.2080519}},{"storeLogo":"Mueller","storeName":"Gummersbach","storeAddress":{"street":"Steinmüllerallee","number":"5","zipCode":"51643","city":"Gummersbach"},"storeCoordinates":{"latitude":51.0245464,"longitude":7.5656969}},{"storeLogo":"Mueller","storeName":"Detmold","storeAddress":{"street":"Lange Str.","number":"73","zipCode":"32756","city":"Detmold"},"storeCoordinates":{"latitude":51.9362505,"longitude":8.881698}},{"storeLogo":"Mueller","storeName":"Hausen","storeAddress":{"street":"Pilatus Campus","number":"4","zipCode":"91353","city":"Hausen"},"storeCoordinates":{"latitude":49.7017414,"longitude":11.0435718}},{"storeLogo":"Mueller","storeName":"Stuttgart Fasanenhof","storeAddress":{"street":"Europaplatz","number":"20","zipCode":"70565","city":"Stuttgart"},"storeCoordinates":{"latitude":48.71333720000001,"longitude":9.1598706}},{"storeLogo":"Mueller","storeName":"Buchloe Bahnhofstrasse","storeAddress":{"street":"Neue Mitte","number":"5","zipCode":"86807","city":"Buchloe"},"storeCoordinates":{"latitude":48.03534399999999,"longitude":10.718902}},{"storeLogo":"Mueller","storeName":"Osnabrück","storeAddress":{"street":"Kamp Promenade","number":"","zipCode":"49074","city":"Osnabrück"},"storeCoordinates":{"latitude":52.2739371,"longitude":8.046646299999999}},{"storeLogo":"Mueller","storeName":"Rheinfelden","storeAddress":{"street":"Kapuzinerstr.","number":"2","zipCode":"79618","city":"Rheinfelden"},"storeCoordinates":{"latitude":47.5587716,"longitude":7.786076100000001}},{"storeLogo":"Mueller","storeName":"Neudrossenfeld","storeAddress":{"street":"An der Autobahn","number":"4","zipCode":"95512","city":"Neudrossenfeld-Unterbruecklein"},"storeCoordinates":{"latitude":50.0381381,"longitude":11.4892118}},{"storeLogo":"Mueller","storeName":"Augsburg Annastrasse","storeAddress":{"street":"Annastrasse","number":"","zipCode":"86150","city":"Augsburg"},"storeCoordinates":{"latitude":48.3680965,"longitude":10.8960397}},{"storeLogo":"Mueller","storeName":"Bad Rappenau","storeAddress":{"street":"Raiffeisenstr.","number":"23","zipCode":"74906","city":"Bad Rappenau"},"storeCoordinates":{"latitude":49.23617489999999,"longitude":9.0981063}},{"storeLogo":"Mueller","storeName":"Mosbach Quartier an der Bachmühle","storeAddress":{"street":"An der Bachmühle","number":"10","zipCode":"74821","city":"Mosbach"},"storeCoordinates":{"latitude":49.353461,"longitude":9.1445394}},{"storeLogo":"Mueller","storeName":"Kulmbach","storeAddress":{"street":"Albert Ruckdeschel Str.","number":"27a","zipCode":"95326","city":"Kulmbach"},"storeCoordinates":{"latitude":50.1127332,"longitude":11.4552527}},{"storeLogo":"Mueller","storeName":"Eggenfelden","storeAddress":{"street":"Schellenbruckplatz","number":"23","zipCode":"84307","city":"Eggenfelden"},"storeCoordinates":{"latitude":48.4010207,"longitude":12.7524029}},{"storeLogo":"Mueller","storeName":"Rheine Ems-Galerie","storeAddress":{"street":"Emsstr.","number":"36","zipCode":"48431","city":"Rheine"},"storeCoordinates":{"latitude":52.278034,"longitude":7.4411692}},{"storeLogo":"Mueller","storeName":"Höxter","storeAddress":{"street":"Am Markt","number":"1","zipCode":"37671","city":"Höxter"},"storeCoordinates":{"latitude":51.7747865,"longitude":9.3818441}},{"storeLogo":"Mueller","storeName":"Leer","storeAddress":{"street":"Mühlenstr.","number":"113-117","zipCode":"26789","city":"Leer"},"storeCoordinates":{"latitude":53.231261,"longitude":7.4604634}},{"storeLogo":"Mueller","storeName":"Neunkirchen / Saar","storeAddress":{"street":"Stummplatz","number":"1","zipCode":"66538","city":"Neunkirchen / Saar"},"storeCoordinates":{"latitude":49.34744209999999,"longitude":7.1737129}},{"storeLogo":"Mueller","storeName":"Saarlouis","storeAddress":{"street":"Im Hader","number":"1-3","zipCode":"66740","city":"Saarlouis"},"storeCoordinates":{"latitude":49.2941148,"longitude":6.7599158}},{"storeLogo":"Mueller","storeName":"Uffenheim","storeAddress":{"street":"Nürnberger Str.","number":"5","zipCode":"97215","city":"Uffenheim"},"storeCoordinates":{"latitude":49.5419185,"longitude":10.2387656}},{"storeLogo":"Mueller","storeName":"Dorsten","storeAddress":{"street":"Westwall","number":"61","zipCode":"46282","city":"Dorsten"},"storeCoordinates":{"latitude":51.6632671,"longitude":6.9634647}},{"storeLogo":"Mueller","storeName":"Traunreut","storeAddress":{"street":"Werner-von-Siemens-Str.","number":"2","zipCode":"83301","city":"Traunreut"},"storeCoordinates":{"latitude":47.9664026,"longitude":12.5860229}},{"storeLogo":"Mueller","storeName":"Unna","storeAddress":{"street":"Bahnhofstr.","number":"32","zipCode":"59423","city":"Unna"},"storeCoordinates":{"latitude":51.537001,"longitude":7.6906948}},{"storeLogo":"Mueller","storeName":"Frankfurt Nord-Westzentrum","storeAddress":{"street":"Limescorso","number":"8","zipCode":"60439","city":"Frankfurt"},"storeCoordinates":{"latitude":50.1576424,"longitude":8.6334486}},{"storeLogo":"Mueller","storeName":"Kornwestheim","storeAddress":{"street":"Holzgrundstr.","number":"3","zipCode":"70806","city":"Kornwestheim"},"storeCoordinates":{"latitude":48.8650054,"longitude":9.1814249}},{"storeLogo":"Mueller","storeName":"Mengen","storeAddress":{"street":"Reiserstr.","number":"6-8","zipCode":"88512","city":"Mengen"},"storeCoordinates":{"latitude":48.049618,"longitude":9.3328704}},{"storeLogo":"Mueller","storeName":"Donauwörth","storeAddress":{"street":"Dillinger Strasse","number":"22","zipCode":"86609","city":"Donauwörth"},"storeCoordinates":{"latitude":48.7162166,"longitude":10.7693141}},{"storeLogo":"Mueller","storeName":"Hilden","storeAddress":{"street":"Mittelstr.","number":"17","zipCode":"40721","city":"Hilden"},"storeCoordinates":{"latitude":51.168722,"longitude":6.9386271}},{"storeLogo":"Mueller","storeName":"Freudenstadt","storeAddress":{"street":"Ludwig-Jahn-Str.","number":"34","zipCode":"72250","city":"Freudenstadt"},"storeCoordinates":{"latitude":48.4694477,"longitude":8.414868499999999}},{"storeLogo":"Mueller","storeName":"Hürth","storeAddress":{"street":"Hürth-Park L020","number":"","zipCode":"50354","city":"Hürth"},"storeCoordinates":{"latitude":50.8786895,"longitude":6.873908}},{"storeLogo":"Mueller","storeName":"Feucht","storeAddress":{"street":"Altdorfer Strasse","number":"30a","zipCode":"90537","city":"Feucht"},"storeCoordinates":{"latitude":49.3776456,"longitude":11.217822}},{"storeLogo":"Mueller","storeName":"Bingen / Rhein Basilikastr.","storeAddress":{"street":"Basilikastr.","number":"3","zipCode":"55411","city":"Bingen / Rhein"},"storeCoordinates":{"latitude":49.9678135,"longitude":7.8929692}},{"storeLogo":"Mueller","storeName":"St. Augustin","storeAddress":{"street":"Rathausallee","number":"16","zipCode":"53757","city":"St. Augustin"},"storeCoordinates":{"latitude":50.7784023,"longitude":7.186461}},{"storeLogo":"Mueller","storeName":"Ditzingen","storeAddress":{"street":"Stuttgarter Str.","number":"41","zipCode":"71254","city":"Ditzingen"},"storeCoordinates":{"latitude":48.8238442,"longitude":9.065432}},{"storeLogo":"Mueller","storeName":"Fulda Bahnhofstrasse","storeAddress":{"street":"Bahnhofstr.","number":"17","zipCode":"36037","city":"Fulda"},"storeCoordinates":{"latitude":50.5535062,"longitude":9.681332000000001}},{"storeLogo":"Mueller","storeName":"Mönchengladbach","storeAddress":{"street":"Hindenburgstrasse","number":"73","zipCode":"41061","city":"Mönchengladbach"},"storeCoordinates":{"latitude":51.1952315,"longitude":6.438903499999999}},{"storeLogo":"Mueller","storeName":"Wuppertal Elberfeld","storeAddress":{"street":"Wall","number":"18-20","zipCode":"42103","city":"Wuppertal"},"storeCoordinates":{"latitude":51.257368,"longitude":7.1459586}},{"storeLogo":"Mueller","storeName":"Horb am Neckar Arcaden","storeAddress":{"street":"Bahnhofsplatz","number":"1","zipCode":"72160","city":"Horb am Neckar"},"storeCoordinates":{"latitude":48.4425238,"longitude":8.690769}},{"storeLogo":"Mueller","storeName":"Brackenheim","storeAddress":{"street":"Hermann-Bauer-Straße","number":"2/1","zipCode":"74336","city":"Brackenheim"},"storeCoordinates":{"latitude":49.07479499999999,"longitude":9.0640096}},{"storeLogo":"Mueller","storeName":"Müllheim","storeAddress":{"street":"Werderstr.","number":"40a","zipCode":"79379","city":"Müllheim"},"storeCoordinates":{"latitude":47.8081858,"longitude":7.6279197}},{"storeLogo":"Mueller","storeName":"Schopfheim - Scheffelstraße","storeAddress":{"street":"Scheffelstraße","number":"4","zipCode":"79650","city":"Schopfheim"},"storeCoordinates":{"latitude":47.648848,"longitude":7.8216012}},{"storeLogo":"Mueller","storeName":"München PEP","storeAddress":{"street":"Ollenhauerstr.","number":"6","zipCode":"81737","city":"München"},"storeCoordinates":{"latitude":48.1007548,"longitude":11.6445356}},{"storeLogo":"Mueller","storeName":"Nördlingen","storeAddress":{"street":"Löpsinger Straße","number":"10-12","zipCode":"86720","city":"Nördlingen"},"storeCoordinates":{"latitude":48.8523941,"longitude":10.4904202}},{"storeLogo":"Mueller","storeName":"Hamburg Langenhorn","storeAddress":{"street":"Langenhorner Markt","number":"","zipCode":"22415","city":"Hamburg"},"storeCoordinates":{"latitude":53.649797,"longitude":10.0118995}},{"storeLogo":"Mueller","storeName":"Minden","storeAddress":{"street":"Scharn","number":"6","zipCode":"32423","city":"Minden"},"storeCoordinates":{"latitude":52.2891164,"longitude":8.91677}},{"storeLogo":"Mueller","storeName":"Alsfeld","storeAddress":{"street":"Schellengasse","number":"41","zipCode":"36304","city":"Alsfeld"},"storeCoordinates":{"latitude":50.7515914,"longitude":9.2789385}},{"storeLogo":"Mueller","storeName":"Karlsruhe Ettlinger Tor","storeAddress":{"street":"Ettlinger-Tor-Platz","number":"1","zipCode":"76133","city":"Karlsruhe"},"storeCoordinates":{"latitude":49.0073629,"longitude":8.4018798}},{"storeLogo":"Mueller","storeName":"Karlsfeld","storeAddress":{"street":"An der Wögerwiese","number":"3","zipCode":"85757","city":"Karlsfeld"},"storeCoordinates":{"latitude":48.2270772,"longitude":11.4697766}},{"storeLogo":"Mueller","storeName":"Rangsdorf Südring-Center","storeAddress":{"street":"Klein-Kienitzer-Str.","number":"2","zipCode":"15834","city":"Rangsdorf"},"storeCoordinates":{"latitude":52.2977617,"longitude":13.4585193}},{"storeLogo":"Mueller","storeName":"Wasserburg Am Aussichtsturm","storeAddress":{"street":"Am Aussichtsturm","number":"3-5","zipCode":"83512","city":"Wasserburg"},"storeCoordinates":{"latitude":48.0575293,"longitude":12.2368337}},{"storeLogo":"Mueller","storeName":"Hamburg Billstedt","storeAddress":{"street":"Möllner Landstr.","number":"3","zipCode":"22111","city":"Hamburg"},"storeCoordinates":{"latitude":53.5408232,"longitude":10.1052109}},{"storeLogo":"Mueller","storeName":"Düsseldorf","storeAddress":{"street":"Friedrichstr.","number":"133","zipCode":"40217","city":"Düsseldorf"},"storeCoordinates":{"latitude":51.2083464,"longitude":6.774539}},{"storeLogo":"Mueller","storeName":"Hamburg Altona","storeAddress":{"street":"Ottenser Hauptstraße","number":"2-6","zipCode":"22765","city":"Hamburg"},"storeCoordinates":{"latitude":53.5523175,"longitude":9.9326876}},{"storeLogo":"Mueller","storeName":"Berlin East Side Mall","storeAddress":{"street":"Tamara Danz Straße","number":"11","zipCode":"10243","city":"Berlin"},"storeCoordinates":{"latitude":52.5060818,"longitude":13.4465683}},{"storeLogo":"Mueller","storeName":"Dortmund","storeAddress":{"street":"Westenhellweg","number":"44-46","zipCode":"44137","city":"Dortmund"},"storeCoordinates":{"latitude":51.5141911,"longitude":7.463546099999999}},{"storeLogo":"Mueller","storeName":"Flensburg","storeAddress":{"street":"Holm","number":"57-61","zipCode":"24937","city":"Flensburg"},"storeCoordinates":{"latitude":54.7835288,"longitude":9.4382565}},{"storeLogo":"Mueller","storeName":"Pforzen","storeAddress":{"street":"Am Moosberg","number":"4","zipCode":"87666","city":"Pforzen"},"storeCoordinates":{"latitude":47.9346126,"longitude":10.6081508}},{"storeLogo":"Mueller","storeName":"Großmehring","storeAddress":{"street":"Ingolstädterstraße","number":"75","zipCode":"85098","city":"Großmehring"},"storeCoordinates":{"latitude":48.768835,"longitude":11.512728}},{"storeLogo":"Mueller","storeName":"Wiesbaden","storeAddress":{"street":"Kirchgasse","number":"11-13","zipCode":"65185","city":"Wiesbaden"},"storeCoordinates":{"latitude":50.07855319999999,"longitude":8.238596099999999}},{"storeLogo":"Mueller","storeName":"Berlin - Wilmersdorfer Arcaden","storeAddress":{"street":"Wilmersdorfer Strasse","number":"46","zipCode":"10627","city":"Berlin"},"storeCoordinates":{"latitude":52.509249,"longitude":13.304609}},{"storeLogo":"Mueller","storeName":"Germersheim","storeAddress":{"street":"August-Keiler-Str.","number":"45","zipCode":"76726","city":"Germersheim"},"storeCoordinates":{"latitude":49.21746839999999,"longitude":8.377361}},{"storeLogo":"Mueller","storeName":"Gladbeck","storeAddress":{"street":"Hochstr.","number":"10","zipCode":"45964","city":"Gladbeck"},"storeCoordinates":{"latitude":51.5732408,"longitude":6.9899665}},{"storeLogo":"Mueller","storeName":"Landshut - Altstadt","storeAddress":{"street":"Altstadt","number":"82-84","zipCode":"84028","city":"Landshut"},"storeCoordinates":{"latitude":48.5365184,"longitude":12.1515322}},{"storeLogo":"Mueller","storeName":"Stockstadt","storeAddress":{"street":"Taunusstrasse","number":"2","zipCode":"63811","city":"Stockstadt"},"storeCoordinates":{"latitude":49.9599149,"longitude":9.080977800000001}},{"storeLogo":"Mueller","storeName":"Dachau Fraunhoferstrasse","storeAddress":{"street":"Fraunhoferstrasse","number":"1","zipCode":"85221","city":"Dachau"},"storeCoordinates":{"latitude":48.2632143,"longitude":11.4706186}},{"storeLogo":"Mueller","storeName":"Korntal","storeAddress":{"street":"Johannes-Daur-Strasse","number":"4","zipCode":"70825","city":"Korntal-Münchingen"},"storeCoordinates":{"latitude":48.830853,"longitude":9.1211405}},{"storeLogo":"Mueller","storeName":"Elchingen","storeAddress":{"street":"Nersinger Straße","number":"28","zipCode":"89275","city":"Elchingen"},"storeCoordinates":{"latitude":48.4480097,"longitude":10.098565}},{"storeLogo":"Mueller","storeName":"Pfarrkirchen","storeAddress":{"street":"Franz-Stelzenberger-Str.","number":"6","zipCode":"84347","city":"Pfarrkirchen"},"storeCoordinates":{"latitude":48.418817,"longitude":12.9408448}},{"storeLogo":"Mueller","storeName":"Berlin Gropius Passagen","storeAddress":{"street":"Johannisthaler Chaussee","number":"317","zipCode":"12351","city":"Berlin"},"storeCoordinates":{"latitude":52.429664,"longitude":13.4529557}},{"storeLogo":"Mueller","storeName":"Meschede","storeAddress":{"street":"Winziger Platz","number":"8-10","zipCode":"59872","city":"Meschede"},"storeCoordinates":{"latitude":51.34759,"longitude":8.285139899999999}},{"storeLogo":"Mueller","storeName":"Frankfurt - Berger Straße","storeAddress":{"street":"Berger Straße","number":"125-129","zipCode":"60385","city":"Frankfurt"},"storeCoordinates":{"latitude":50.1240435,"longitude":8.7027934}},{"storeLogo":"Mueller","storeName":"Pfungstadt","storeAddress":{"street":"Eberstädter Straße","number":"200","zipCode":"64319","city":"Pfungstadt"},"storeCoordinates":{"latitude":49.8141802,"longitude":8.6186671}},{"storeLogo":"Mueller","storeName":"Neustadt / Aisch - Steinsweg","storeAddress":{"street":"Steinsweg","number":"7","zipCode":"91413","city":"Neustadt Aisch"},"storeCoordinates":{"latitude":49.58086,"longitude":10.59863}},{"storeLogo":"Mueller","storeName":"Hallstadt - Laubanger","storeAddress":{"street":"Emil-Kemmer-Straße","number":"7","zipCode":"96103","city":"Hallstadt"},"storeCoordinates":{"latitude":49.91606729999999,"longitude":10.8659519}},{"storeLogo":"Mueller","storeName":"Braunschweig - Kattreppeln","storeAddress":{"street":"Kattreppeln","number":"19-24","zipCode":"38100","city":"Braunschweig"},"storeCoordinates":{"latitude":52.262069,"longitude":10.5220453}},{"storeLogo":"Mueller","storeName":"Pfaffenhofen an der Ilm","storeAddress":{"street":"Hauptplatz","number":"39","zipCode":"85276","city":"Pfaffenhofen an der Ilm"},"storeCoordinates":{"latitude":48.5296539,"longitude":11.505858}},{"storeLogo":"Mueller","storeName":"Sennfeld","storeAddress":{"street":"Schweinfurter Str.","number":"3c","zipCode":"97526","city":"Sennfeld"},"storeCoordinates":{"latitude":50.0389014,"longitude":10.246723}},{"storeLogo":"Mueller","storeName":"Gilching Dornierstraße","storeAddress":{"street":"Dornierstr.","number":"2 c","zipCode":"82205","city":"Gilching"},"storeCoordinates":{"latitude":48.0939513,"longitude":11.3128167}},{"storeLogo":"Mueller","storeName":"Haag","storeAddress":{"street":"Schäfflerstr.","number":"4","zipCode":"83527","city":"Haag"},"storeCoordinates":{"latitude":48.16439,"longitude":12.16816}},{"storeLogo":"Mueller","storeName":"Moormerland","storeAddress":{"street":"Rudolf-Eucken-Str.","number":"3","zipCode":"26802","city":"Moormerland"},"storeCoordinates":{"latitude":53.30873159999999,"longitude":7.4863733}},{"storeLogo":"Mueller","storeName":"Bad Saulgau Moosheimer Straße","storeAddress":{"street":"Moosheimer Str.","number":"29","zipCode":"88348","city":"Bad Saulgau"},"storeCoordinates":{"latitude":48.0214439,"longitude":9.495513299999999}},{"storeLogo":"Mueller","storeName":"Sangerhausen","storeAddress":{"street":"Kylische Str. 35 / Harz","number":"5","zipCode":"06526","city":"Sangerhausen"},"storeCoordinates":{"latitude":51.4722982,"longitude":11.2948743}},{"storeLogo":"Mueller","storeName":"Schmalkalden","storeAddress":{"street":"Salzbrücke","number":"2","zipCode":"98574","city":"Schmalkalden"},"storeCoordinates":{"latitude":50.7220282,"longitude":10.4518179}},{"storeLogo":"Mueller","storeName":"Plauen","storeAddress":{"street":"Bahnhofstr.","number":"8","zipCode":"08523","city":"Plauen"},"storeCoordinates":{"latitude":50.4979037,"longitude":12.1364995}},{"storeLogo":"Mueller","storeName":"Meiningen","storeAddress":{"street":"Georgstr.","number":"19","zipCode":"98617","city":"Meiningen"},"storeCoordinates":{"latitude":50.5695633,"longitude":10.415954}},{"storeLogo":"Mueller","storeName":"Merseburg","storeAddress":{"street":"Gotthard Str.","number":"20","zipCode":"06217","city":"Merseburg"},"storeCoordinates":{"latitude":51.3549087,"longitude":11.9967853}},{"storeLogo":"Mueller","storeName":"Köthen","storeAddress":{"street":"Buttermarkt","number":"5","zipCode":"06366","city":"Köthen"},"storeCoordinates":{"latitude":51.751369,"longitude":11.9756773}},{"storeLogo":"Mueller","storeName":"Halle","storeAddress":{"street":"Große Ulrichstr.","number":"2","zipCode":"06108","city":"Halle"},"storeCoordinates":{"latitude":51.4840919,"longitude":11.969369}},{"storeLogo":"Mueller","storeName":"Erfurt","storeAddress":{"street":"Schlösserstr.","number":"19","zipCode":"99084","city":"Erfurt"},"storeCoordinates":{"latitude":50.9765342,"longitude":11.0316962}},{"storeLogo":"Mueller","storeName":"Weißenfels","storeAddress":{"street":"Jüdenstr.","number":"2","zipCode":"06667","city":"Weißenfels"},"storeCoordinates":{"latitude":51.20119829999999,"longitude":11.9713958}},{"storeLogo":"Mueller","storeName":"Berlin Wedding","storeAddress":{"street":"Müllerstr.","number":"30 A","zipCode":"13353","city":"Berlin-Wedding"},"storeCoordinates":{"latitude":52.547702,"longitude":13.3573756}},{"storeLogo":"Mueller","storeName":"Wetzlar","storeAddress":{"street":"Buderusplatz","number":"2","zipCode":"35576","city":"Wetzlar"},"storeCoordinates":{"latitude":50.5608796,"longitude":8.5022951}},{"storeLogo":"Mueller","storeName":"Leipzig Petersstraße","storeAddress":{"street":"Petersstr.","number":"28","zipCode":"04109","city":"Leipzig"},"storeCoordinates":{"latitude":51.3382335,"longitude":12.3744311}},{"storeLogo":"Mueller","storeName":"Roth","storeAddress":{"street":"Hauptstr.","number":"17 - 19","zipCode":"91154","city":"Roth"},"storeCoordinates":{"latitude":49.2460242,"longitude":11.090423}},{"storeLogo":"Mueller","storeName":"Lahr","storeAddress":{"street":"Schlossplatz","number":"18","zipCode":"77933","city":"Lahr"},"storeCoordinates":{"latitude":48.3393965,"longitude":7.872036199999999}},{"storeLogo":"Mueller","storeName":"Heppenheim","storeAddress":{"street":"Lehrstr.","number":"2-8","zipCode":"64646","city":"Heppenheim"},"storeCoordinates":{"latitude":49.6429123,"longitude":8.6423509}},{"storeLogo":"Mueller","storeName":"Frankenthal","storeAddress":{"street":"Wormserstraße","number":"8 - 10","zipCode":"67227","city":"Frankenthal"},"storeCoordinates":{"latitude":49.5361905,"longitude":8.354491699999999}},{"storeLogo":"Mueller","storeName":"Konstanz Marktstätte","storeAddress":{"street":"Marktstätte","number":"13","zipCode":"78462","city":"Konstanz 2"},"storeCoordinates":{"latitude":47.660124,"longitude":9.1755458}},{"storeLogo":"Mueller","storeName":"Forchheim","storeAddress":{"street":"Hauptstr.","number":"51","zipCode":"91301","city":"Forchheim"},"storeCoordinates":{"latitude":49.7188526,"longitude":11.059181}},{"storeLogo":"Mueller","storeName":"Berlin Biesdorf-Center","storeAddress":{"street":"Weißenhöher Str.","number":"88","zipCode":"12683","city":"Berlin-Biesdorf"},"storeCoordinates":{"latitude":52.5063189,"longitude":13.5590061}},{"storeLogo":"Mueller","storeName":"Würzburg","storeAddress":{"street":"Dominikanerplatz","number":"4","zipCode":"97070","city":"Würzburg"},"storeCoordinates":{"latitude":49.796386,"longitude":9.931453}},{"storeLogo":"Mueller","storeName":"Herzberg am Harz","storeAddress":{"street":"Hauptstr.","number":"11-13","zipCode":"37412","city":"Herzberg am Harz"},"storeCoordinates":{"latitude":51.655478,"longitude":10.3358392}},{"storeLogo":"Mueller","storeName":"Gera","storeAddress":{"street":"Schloßstraße","number":"12","zipCode":"07545","city":"Gera"},"storeCoordinates":{"latitude":50.8781765,"longitude":12.0816215}},{"storeLogo":"Mueller","storeName":"Butzbach","storeAddress":{"street":"Weiseler Str.","number":"20","zipCode":"35510","city":"Butzbach"},"storeCoordinates":{"latitude":50.4327822,"longitude":8.6711447}},{"storeLogo":"Mueller","storeName":"Auerbach-Vogtland","storeAddress":{"street":"Nicolaistr.","number":"16","zipCode":"08209","city":"Auerbach"},"storeCoordinates":{"latitude":50.508534,"longitude":12.3996654}},{"storeLogo":"Mueller","storeName":"Dornstadt","storeAddress":{"street":"Alte Landstr.","number":"5","zipCode":"89160","city":"Dornstadt"},"storeCoordinates":{"latitude":48.4683773,"longitude":9.9459083}},{"storeLogo":"Mueller","storeName":"Herbrechtingen","storeAddress":{"street":"Zeppelinweg","number":"3","zipCode":"89542","city":"Herbrechtingen"},"storeCoordinates":{"latitude":48.62865670000001,"longitude":10.1891167}},{"storeLogo":"Mueller","storeName":"Kuchen","storeAddress":{"street":"Im Gewerbepark","number":"2","zipCode":"73329","city":"Kuchen"},"storeCoordinates":{"latitude":48.6449762,"longitude":9.790499299999999}},{"storeLogo":"Mueller","storeName":"Senden Iller Center","storeAddress":{"street":"Berliner Str.","number":"9","zipCode":"89250","city":"Senden"},"storeCoordinates":{"latitude":48.33173739999999,"longitude":10.0384241}},{"storeLogo":"Mueller","storeName":"Leipzig P.C. Paunsdorf Center","storeAddress":{"street":"Paunsdorf Allee","number":"1","zipCode":"04329","city":"Leipzig"},"storeCoordinates":{"latitude":51.3483642,"longitude":12.4777518}},{"storeLogo":"Mueller","storeName":"Werneck","storeAddress":{"street":"Am Eschenbach","number":"6","zipCode":"97440","city":"Werneck"},"storeCoordinates":{"latitude":50.00413289999999,"longitude":10.1152767}},{"storeLogo":"Mueller","storeName":"Günzburg Ulmer Straße","storeAddress":{"street":"Ulmer Straße","number":"","zipCode":"89312","city":"Günzburg"},"storeCoordinates":{"latitude":48.453927,"longitude":10.2658997}},{"storeLogo":"Mueller","storeName":"Langenau","storeAddress":{"street":"Benzstraße","number":"7","zipCode":"89129","city":"Langenau"},"storeCoordinates":{"latitude":48.4990347,"longitude":10.1342141}},{"storeLogo":"Mueller","storeName":"Isny","storeAddress":{"street":"Bahnhofstr.","number":"2","zipCode":"88316","city":"Isny"},"storeCoordinates":{"latitude":47.6944702,"longitude":10.0419606}},{"storeLogo":"Mueller","storeName":"Murnau","storeAddress":{"street":"Untermarkt","number":"29","zipCode":"82418","city":"Murnau"},"storeCoordinates":{"latitude":47.67653,"longitude":11.2010504}},{"storeLogo":"Mueller","storeName":"Nürtingen","storeAddress":{"street":"Kirchstr.","number":"30","zipCode":"72622","city":"Nürtingen"},"storeCoordinates":{"latitude":48.6260452,"longitude":9.340262200000002}},{"storeLogo":"Mueller","storeName":"Weil / Rhein Hauptstraße 162","storeAddress":{"street":"Hauptstr.","number":"162","zipCode":"79576","city":"Weil am Rhein"},"storeCoordinates":{"latitude":47.5940392,"longitude":7.6260334}},{"storeLogo":"Mueller","storeName":"Bad Saulgau Hauptstraße","storeAddress":{"street":"Hauptstr.","number":"47","zipCode":"88348","city":"Bad Saulgau"},"storeCoordinates":{"latitude":48.0173084,"longitude":9.4999667}},{"storeLogo":"Mueller","storeName":"Bad Wurzach","storeAddress":{"street":"Marktstr.","number":"7","zipCode":"88410","city":"Bad Wurzach"},"storeCoordinates":{"latitude":47.908608,"longitude":9.8959614}},{"storeLogo":"Mueller","storeName":"Northeim","storeAddress":{"street":"Markt","number":"16","zipCode":"37154","city":"Northeim"},"storeCoordinates":{"latitude":51.7063284,"longitude":9.9991676}},{"storeLogo":"Mueller","storeName":"Norderney","storeAddress":{"street":"Poststr.","number":"12","zipCode":"26548","city":"Norderney"},"storeCoordinates":{"latitude":53.7066763,"longitude":7.143074299999999}}],"_type":"retailer"}